[
   {
   "postcode":3000,
   "place_name":"Melbourne",
   "state_name":"Victoria",
   "state_code":"VIC",
   "latitude":-37.814,
   "longitude":144.9633,
   "accuracy":4
 },
 {
   "postcode":3001,
   "place_name":"Melbourne",
   "state_name":"Victoria",
   "state_code":"VIC",
   "latitude":-37.814,
   "longitude":144.9633,
   "accuracy":4
 },
 {
   "postcode":3002,
   "place_name":"East Melbourne",
   "state_name":"Victoria",
   "state_code":"VIC",
   "latitude":-37.8167,
   "longitude":144.9879,
   "accuracy":4
 },
 {
   "postcode":3003,
   "place_name":"West Melbourne",
   "state_name":"Victoria",
   "state_code":"VIC",
   "latitude":-37.8101,
   "longitude":144.95,
   "accuracy":4
 },
 {
   "postcode":3004,
   "place_name":"Melbourne",
   "state_name":"Victoria",
   "state_code":"VIC",
   "latitude":-37.814,
   "longitude":144.9633,
   "accuracy":4
 },
 {
   "postcode":3004,
   "place_name":"St Kilda Road Central",
   "state_name":"Victoria",
   "state_code":"VIC",
   "latitude":-37.814,
   "longitude":144.9633,
   "accuracy":3
 },
 {
   "postcode":3004,
   "place_name":"St Kilda Road Melbourne",
   "state_name":"Victoria",
   "state_code":"VIC",
   "latitude":-37.814,
   "longitude":144.9633,
   "accuracy":3
 },
 {
   "postcode":3005,
   "place_name":"World Trade Centre",
   "state_name":"Victoria",
   "state_code":"VIC",
   "latitude":-37.8152,
   "longitude":144.9632,
   "accuracy":1
 },
 {
   "postcode":3006,
   "place_name":"South Wharf",
   "state_name":"Victoria",
   "state_code":"VIC",
   "latitude":-37.8253,
   "longitude":144.9522,
   "accuracy":4
 },
 {
   "postcode":3006,
   "place_name":"Southbank",
   "state_name":"Victoria",
   "state_code":"VIC",
   "latitude":-37.8228,
   "longitude":144.9643,
   "accuracy":4
 },
 {
   "postcode":3008,
   "place_name":"Docklands",
   "state_name":"Victoria",
   "state_code":"VIC",
   "latitude":-37.8149,
   "longitude":144.9505,
   "accuracy":4
 },
 {
   "postcode":3010,
   "place_name":"University Of Melbourne",
   "state_name":"Victoria",
   "state_code":"VIC",
   "latitude":-37.7958,
   "longitude":144.9612,
   "accuracy":1
 },
 {
   "postcode":3011,
   "place_name":"Seddon",
   "state_name":"Victoria",
   "state_code":"VIC",
   "latitude":-37.8061,
   "longitude":144.8907,
   "accuracy":4
 },
 {
   "postcode":3011,
   "place_name":"Seddon West",
   "state_name":"Victoria",
   "state_code":"VIC",
   "latitude":-37.7995,
   "longitude":144.8963,
   "accuracy":3
 },
 {
   "postcode":3011,
   "place_name":"Footscray",
   "state_name":"Victoria",
   "state_code":"VIC",
   "latitude":-37.8,
   "longitude":144.9,
   "accuracy":4
 },
 {
   "postcode":3012,
   "place_name":"Maidstone",
   "state_name":"Victoria",
   "state_code":"VIC",
   "latitude":-37.7803,
   "longitude":144.8735,
   "accuracy":4
 },
 {
   "postcode":3012,
   "place_name":"Tottenham",
   "state_name":"Victoria",
   "state_code":"VIC",
   "latitude":-37.7985,
   "longitude":144.8626,
   "accuracy":4
 },
 {
   "postcode":3012,
   "place_name":"West Footscray",
   "state_name":"Victoria",
   "state_code":"VIC",
   "latitude":-37.7975,
   "longitude":144.8773,
   "accuracy":4
 },
 {
   "postcode":3012,
   "place_name":"Brooklyn",
   "state_name":"Victoria",
   "state_code":"VIC",
   "latitude":-37.8161,
   "longitude":144.8415,
   "accuracy":4
 },
 {
   "postcode":3012,
   "place_name":"Kingsville",
   "state_name":"Victoria",
   "state_code":"VIC",
   "latitude":-37.8082,
   "longitude":144.8791,
   "accuracy":4
 },
 {
   "postcode":3013,
   "place_name":"Yarraville",
   "state_name":"Victoria",
   "state_code":"VIC",
   "latitude":-37.8167,
   "longitude":144.9,
   "accuracy":4
 },
 {
   "postcode":3013,
   "place_name":"Yarraville West",
   "state_name":"Victoria",
   "state_code":"VIC",
   "latitude":-37.8249,
   "longitude":144.8708,
   "accuracy":3
 },
 {
   "postcode":3015,
   "place_name":"Newport",
   "state_name":"Victoria",
   "state_code":"VIC",
   "latitude":-37.8443,
   "longitude":144.8848,
   "accuracy":4
 },
 {
   "postcode":3015,
   "place_name":"Spotswood",
   "state_name":"Victoria",
   "state_code":"VIC",
   "latitude":-37.8298,
   "longitude":144.8852,
   "accuracy":4
 },
 {
   "postcode":3015,
   "place_name":"South Kingsville",
   "state_name":"Victoria",
   "state_code":"VIC",
   "latitude":-37.8302,
   "longitude":144.8709,
   "accuracy":4
 },
 {
   "postcode":3016,
   "place_name":"Williamstown North",
   "state_name":"Victoria",
   "state_code":"VIC",
   "latitude":-37.8552,
   "longitude":144.8826,
   "accuracy":4
 },
 {
   "postcode":3016,
   "place_name":"Williamstown",
   "state_name":"Victoria",
   "state_code":"VIC",
   "latitude":-37.857,
   "longitude":144.8977,
   "accuracy":4
 },
 {
   "postcode":3018,
   "place_name":"Seaholme",
   "state_name":"Victoria",
   "state_code":"VIC",
   "latitude":-37.864,
   "longitude":144.845,
   "accuracy":4
 },
 {
   "postcode":3018,
   "place_name":"Altona",
   "state_name":"Victoria",
   "state_code":"VIC",
   "latitude":-37.8696,
   "longitude":144.8304,
   "accuracy":4
 },
 {
   "postcode":3019,
   "place_name":"Braybrook",
   "state_name":"Victoria",
   "state_code":"VIC",
   "latitude":-37.7867,
   "longitude":144.8548,
   "accuracy":4
 },
 {
   "postcode":3019,
   "place_name":"Robinson",
   "state_name":"Victoria",
   "state_code":"VIC",
   "latitude":-37.7867,
   "longitude":144.8548,
   "accuracy":3
 },
 {
   "postcode":3020,
   "place_name":"Sunshine West",
   "state_name":"Victoria",
   "state_code":"VIC",
   "latitude":-37.7912,
   "longitude":144.8164,
   "accuracy":4
 },
 {
   "postcode":3020,
   "place_name":"Albion",
   "state_name":"Victoria",
   "state_code":"VIC",
   "latitude":-37.7667,
   "longitude":144.8333,
   "accuracy":4
 },
 {
   "postcode":3020,
   "place_name":"Glengala",
   "state_name":"Victoria",
   "state_code":"VIC",
   "latitude":-37.775,
   "longitude":144.8333,
   "accuracy":3
 },
 {
   "postcode":3020,
   "place_name":"Sunshine North",
   "state_name":"Victoria",
   "state_code":"VIC",
   "latitude":-37.7699,
   "longitude":144.8279,
   "accuracy":4
 },
 {
   "postcode":3020,
   "place_name":"Sunshine",
   "state_name":"Victoria",
   "state_code":"VIC",
   "latitude":-37.7833,
   "longitude":144.8333,
   "accuracy":4
 },
 {
   "postcode":3021,
   "place_name":"Albanvale",
   "state_name":"Victoria",
   "state_code":"VIC",
   "latitude":-37.7461,
   "longitude":144.7686,
   "accuracy":4
 },
 {
   "postcode":3021,
   "place_name":"St Albans",
   "state_name":"Victoria",
   "state_code":"VIC",
   "latitude":-37.745,
   "longitude":144.8005,
   "accuracy":4
 },
 {
   "postcode":3021,
   "place_name":"Kealba",
   "state_name":"Victoria",
   "state_code":"VIC",
   "latitude":-37.7371,
   "longitude":144.8283,
   "accuracy":4
 },
 {
   "postcode":3021,
   "place_name":"Kings Park",
   "state_name":"Victoria",
   "state_code":"VIC",
   "latitude":-37.734,
   "longitude":144.7777,
   "accuracy":4
 },
 {
   "postcode":3022,
   "place_name":"Deer Park East",
   "state_name":"Victoria",
   "state_code":"VIC",
   "latitude":-37.7764,
   "longitude":144.8016,
   "accuracy":3
 },
 {
   "postcode":3022,
   "place_name":"Ardeer",
   "state_name":"Victoria",
   "state_code":"VIC",
   "latitude":-37.7759,
   "longitude":144.8014,
   "accuracy":4
 },
 {
   "postcode":3023,
   "place_name":"Deer Park",
   "state_name":"Victoria",
   "state_code":"VIC",
   "latitude":-37.7667,
   "longitude":144.7833,
   "accuracy":4
 },
 {
   "postcode":3023,
   "place_name":"Ravenhall",
   "state_name":"Victoria",
   "state_code":"VIC",
   "latitude":-37.7655,
   "longitude":144.751,
   "accuracy":4
 },
 {
   "postcode":3023,
   "place_name":"Deer Park North",
   "state_name":"Victoria",
   "state_code":"VIC",
   "latitude":-37.7541,
   "longitude":144.7651,
   "accuracy":3
 },
 {
   "postcode":3023,
   "place_name":"Burnside",
   "state_name":"Victoria",
   "state_code":"VIC",
   "latitude":-37.7494,
   "longitude":144.753,
   "accuracy":4
 },
 {
   "postcode":3023,
   "place_name":"Cairnlea",
   "state_name":"Victoria",
   "state_code":"VIC",
   "latitude":-37.7593,
   "longitude":144.7878,
   "accuracy":4
 },
 {
   "postcode":3023,
   "place_name":"Burnside Heights",
   "state_name":"Victoria",
   "state_code":"VIC",
   "latitude":-37.7269,
   "longitude":144.7523,
   "accuracy":4
 },
 {
   "postcode":3023,
   "place_name":"Caroline Springs",
   "state_name":"Victoria",
   "state_code":"VIC",
   "latitude":-37.7412,
   "longitude":144.7363,
   "accuracy":4
 },
 {
   "postcode":3024,
   "place_name":"Wyndham Vale",
   "state_name":"Victoria",
   "state_code":"VIC",
   "latitude":-37.8415,
   "longitude":144.541,
   "accuracy":4
 },
 {
   "postcode":3024,
   "place_name":"Mount Cottrell",
   "state_name":"Victoria",
   "state_code":"VIC",
   "latitude":-37.8167,
   "longitude":144.5833,
   "accuracy":4
 },
 {
   "postcode":3024,
   "place_name":"Mambourin",
   "state_name":"Victoria",
   "state_code":"VIC",
   "latitude":-37.8755,
   "longitude":144.5032,
   "accuracy":4
 },
 {
   "postcode":3025,
   "place_name":"Altona North",
   "state_name":"Victoria",
   "state_code":"VIC",
   "latitude":-37.8349,
   "longitude":144.8474,
   "accuracy":4
 },
 {
   "postcode":3025,
   "place_name":"Altona Gate",
   "state_name":"Victoria",
   "state_code":"VIC",
   "latitude":-37.8349,
   "longitude":144.8474,
   "accuracy":3
 },
 {
   "postcode":3025,
   "place_name":"Altona East",
   "state_name":"Victoria",
   "state_code":"VIC",
   "latitude":-37.8349,
   "longitude":144.8474,
   "accuracy":3
 },
 {
   "postcode":3026,
   "place_name":"Laverton North",
   "state_name":"Victoria",
   "state_code":"VIC",
   "latitude":-37.8205,
   "longitude":144.8159,
   "accuracy":4
 },
 {
   "postcode":3027,
   "place_name":"Williams Landing",
   "state_name":"Victoria",
   "state_code":"VIC",
   "latitude":-37.8619,
   "longitude":144.7437,
   "accuracy":4
 },
 {
   "postcode":3028,
   "place_name":"Altona Meadows",
   "state_name":"Victoria",
   "state_code":"VIC",
   "latitude":-37.8841,
   "longitude":144.7837,
   "accuracy":4
 },
 {
   "postcode":3028,
   "place_name":"Laverton",
   "state_name":"Victoria",
   "state_code":"VIC",
   "latitude":-37.862,
   "longitude":144.7698,
   "accuracy":4
 },
 {
   "postcode":3028,
   "place_name":"Seabrook",
   "state_name":"Victoria",
   "state_code":"VIC",
   "latitude":-37.8809,
   "longitude":144.7587,
   "accuracy":4
 },
 {
   "postcode":3029,
   "place_name":"Truganina",
   "state_name":"Victoria",
   "state_code":"VIC",
   "latitude":-37.8167,
   "longitude":144.75,
   "accuracy":4
 },
 {
   "postcode":3029,
   "place_name":"Hoppers Crossing",
   "state_name":"Victoria",
   "state_code":"VIC",
   "latitude":-37.8826,
   "longitude":144.7003,
   "accuracy":4
 },
 {
   "postcode":3029,
   "place_name":"Tarneit",
   "state_name":"Victoria",
   "state_code":"VIC",
   "latitude":-37.8667,
   "longitude":144.6667,
   "accuracy":4
 },
 {
   "postcode":3030,
   "place_name":"Point Cook",
   "state_name":"Victoria",
   "state_code":"VIC",
   "latitude":-37.9148,
   "longitude":144.7509,
   "accuracy":4
 },
 {
   "postcode":3030,
   "place_name":"Quandong",
   "state_name":"Victoria",
   "state_code":"VIC",
   "latitude":-37.8139,
   "longitude":144.4951,
   "accuracy":4
 },
 {
   "postcode":3030,
   "place_name":"Werribee",
   "state_name":"Victoria",
   "state_code":"VIC",
   "latitude":-37.9,
   "longitude":144.6667,
   "accuracy":4
 },
 {
   "postcode":3030,
   "place_name":"Derrimut",
   "state_name":"Victoria",
   "state_code":"VIC",
   "latitude":-37.7924,
   "longitude":144.7699,
   "accuracy":4
 },
 {
   "postcode":3030,
   "place_name":"Cocoroc",
   "state_name":"Victoria",
   "state_code":"VIC",
   "latitude":-37.9728,
   "longitude":144.5643,
   "accuracy":4
 },
 {
   "postcode":3030,
   "place_name":"Werribee South",
   "state_name":"Victoria",
   "state_code":"VIC",
   "latitude":-37.9475,
   "longitude":144.7167,
   "accuracy":4
 },
 {
   "postcode":3031,
   "place_name":"Flemington",
   "state_name":"Victoria",
   "state_code":"VIC",
   "latitude":-37.7882,
   "longitude":144.93,
   "accuracy":4
 },
 {
   "postcode":3031,
   "place_name":"Kensington",
   "state_name":"Victoria",
   "state_code":"VIC",
   "latitude":-37.7833,
   "longitude":144.9333,
   "accuracy":4
 },
 {
   "postcode":3032,
   "place_name":"Maribyrnong",
   "state_name":"Victoria",
   "state_code":"VIC",
   "latitude":-37.7833,
   "longitude":144.8833,
   "accuracy":4
 },
 {
   "postcode":3032,
   "place_name":"Highpoint City",
   "state_name":"Victoria",
   "state_code":"VIC",
   "latitude":-37.7747,
   "longitude":144.8999,
   "accuracy":3
 },
 {
   "postcode":3032,
   "place_name":"Travancore",
   "state_name":"Victoria",
   "state_code":"VIC",
   "latitude":-37.7808,
   "longitude":144.9354,
   "accuracy":4
 },
 {
   "postcode":3032,
   "place_name":"Ascot Vale",
   "state_name":"Victoria",
   "state_code":"VIC",
   "latitude":-37.7833,
   "longitude":144.9167,
   "accuracy":4
 },
 {
   "postcode":3033,
   "place_name":"Keilor East",
   "state_name":"Victoria",
   "state_code":"VIC",
   "latitude":-37.7326,
   "longitude":144.865,
   "accuracy":4
 },
 {
   "postcode":3034,
   "place_name":"Avondale Heights",
   "state_name":"Victoria",
   "state_code":"VIC",
   "latitude":-37.7616,
   "longitude":144.8626,
   "accuracy":4
 },
 {
   "postcode":3036,
   "place_name":"Keilor North",
   "state_name":"Victoria",
   "state_code":"VIC",
   "latitude":-37.6963,
   "longitude":144.8047,
   "accuracy":4
 },
 {
   "postcode":3036,
   "place_name":"Keilor",
   "state_name":"Victoria",
   "state_code":"VIC",
   "latitude":-37.7167,
   "longitude":144.8333,
   "accuracy":4
 },
 {
   "postcode":3037,
   "place_name":"Hillside",
   "state_name":"Victoria",
   "state_code":"VIC",
   "latitude":-37.6905,
   "longitude":144.7417,
   "accuracy":4
 },
 {
   "postcode":3037,
   "place_name":"Calder Park",
   "state_name":"Victoria",
   "state_code":"VIC",
   "latitude":-37.6798,
   "longitude":144.7611,
   "accuracy":4
 },
 {
   "postcode":3037,
   "place_name":"Sydenham",
   "state_name":"Victoria",
   "state_code":"VIC",
   "latitude":-37.7,
   "longitude":144.7667,
   "accuracy":4
 },
 {
   "postcode":3037,
   "place_name":"Taylors Hill",
   "state_name":"Victoria",
   "state_code":"VIC",
   "latitude":-37.7099,
   "longitude":144.7548,
   "accuracy":4
 },
 {
   "postcode":3037,
   "place_name":"Delahey",
   "state_name":"Victoria",
   "state_code":"VIC",
   "latitude":-37.7198,
   "longitude":144.7773,
   "accuracy":4
 },
 {
   "postcode":3038,
   "place_name":"Keilor Downs",
   "state_name":"Victoria",
   "state_code":"VIC",
   "latitude":-37.7234,
   "longitude":144.8084,
   "accuracy":4
 },
 {
   "postcode":3038,
   "place_name":"Watergardens",
   "state_name":"Victoria",
   "state_code":"VIC",
   "latitude":-37.6986,
   "longitude":144.7863,
   "accuracy":3
 },
 {
   "postcode":3038,
   "place_name":"Taylors Lakes",
   "state_name":"Victoria",
   "state_code":"VIC",
   "latitude":-37.6986,
   "longitude":144.7863,
   "accuracy":4
 },
 {
   "postcode":3038,
   "place_name":"Keilor Lodge",
   "state_name":"Victoria",
   "state_code":"VIC",
   "latitude":-37.7,
   "longitude":144.8033,
   "accuracy":4
 },
 {
   "postcode":3039,
   "place_name":"Moonee Ponds",
   "state_name":"Victoria",
   "state_code":"VIC",
   "latitude":-37.7667,
   "longitude":144.9167,
   "accuracy":4
 },
 {
   "postcode":3040,
   "place_name":"Essendon",
   "state_name":"Victoria",
   "state_code":"VIC",
   "latitude":-37.7667,
   "longitude":144.9167,
   "accuracy":4
 },
 {
   "postcode":3040,
   "place_name":"Aberfeldie",
   "state_name":"Victoria",
   "state_code":"VIC",
   "latitude":-37.7596,
   "longitude":144.8974,
   "accuracy":4
 },
 {
   "postcode":3040,
   "place_name":"Essendon West",
   "state_name":"Victoria",
   "state_code":"VIC",
   "latitude":-37.7576,
   "longitude":144.879,
   "accuracy":4
 },
 {
   "postcode":3041,
   "place_name":"Strathmore",
   "state_name":"Victoria",
   "state_code":"VIC",
   "latitude":-37.6333,
   "longitude":142.4833,
   "accuracy":4
 },
 {
   "postcode":3041,
   "place_name":"Strathmore Heights",
   "state_name":"Victoria",
   "state_code":"VIC",
   "latitude":-37.7133,
   "longitude":144.8969,
   "accuracy":4
 },
 {
   "postcode":3041,
   "place_name":"Essendon North",
   "state_name":"Victoria",
   "state_code":"VIC",
   "latitude":-37.7422,
   "longitude":144.9055,
   "accuracy":4
 },
 {
   "postcode":3041,
   "place_name":"Essendon Fields",
   "state_name":"Victoria",
   "state_code":"VIC",
   "latitude":-37.7245,
   "longitude":144.8989,
   "accuracy":4
 },
 {
   "postcode":3041,
   "place_name":"Cross Keys",
   "state_name":"Victoria",
   "state_code":"VIC",
   "latitude":-37.7133,
   "longitude":144.8969,
   "accuracy":3
 },
 {
   "postcode":3042,
   "place_name":"Keilor Park",
   "state_name":"Victoria",
   "state_code":"VIC",
   "latitude":-37.7203,
   "longitude":144.8542,
   "accuracy":4
 },
 {
   "postcode":3042,
   "place_name":"Niddrie North",
   "state_name":"Victoria",
   "state_code":"VIC",
   "latitude":-37.7311,
   "longitude":144.8867,
   "accuracy":3
 },
 {
   "postcode":3042,
   "place_name":"Airport West",
   "state_name":"Victoria",
   "state_code":"VIC",
   "latitude":-37.7247,
   "longitude":144.8813,
   "accuracy":4
 },
 {
   "postcode":3042,
   "place_name":"Niddrie",
   "state_name":"Victoria",
   "state_code":"VIC",
   "latitude":-37.7375,
   "longitude":144.8921,
   "accuracy":4
 },
 {
   "postcode":3043,
   "place_name":"Gowanbrae",
   "state_name":"Victoria",
   "state_code":"VIC",
   "latitude":-37.7082,
   "longitude":144.8908,
   "accuracy":4
 },
 {
   "postcode":3043,
   "place_name":"Tullamarine",
   "state_name":"Victoria",
   "state_code":"VIC",
   "latitude":-37.7013,
   "longitude":144.881,
   "accuracy":4
 },
 {
   "postcode":3043,
   "place_name":"Gladstone Park",
   "state_name":"Victoria",
   "state_code":"VIC",
   "latitude":-37.6874,
   "longitude":144.8868,
   "accuracy":4
 },
 {
   "postcode":3044,
   "place_name":"Pascoe Vale",
   "state_name":"Victoria",
   "state_code":"VIC",
   "latitude":-37.7333,
   "longitude":144.9333,
   "accuracy":4
 },
 {
   "postcode":3044,
   "place_name":"Pascoe Vale South",
   "state_name":"Victoria",
   "state_code":"VIC",
   "latitude":-37.7397,
   "longitude":144.9461,
   "accuracy":4
 },
 {
   "postcode":3045,
   "place_name":"Melbourne Airport",
   "state_name":"Victoria",
   "state_code":"VIC",
   "latitude":-37.6743,
   "longitude":144.8518,
   "accuracy":4
 },
 {
   "postcode":3046,
   "place_name":"Oak Park",
   "state_name":"Victoria",
   "state_code":"VIC",
   "latitude":-37.7184,
   "longitude":144.9195,
   "accuracy":4
 },
 {
   "postcode":3046,
   "place_name":"Glenroy",
   "state_name":"Victoria",
   "state_code":"VIC",
   "latitude":-37.7,
   "longitude":144.9333,
   "accuracy":4
 },
 {
   "postcode":3046,
   "place_name":"Hadfield",
   "state_name":"Victoria",
   "state_code":"VIC",
   "latitude":-37.7073,
   "longitude":144.9416,
   "accuracy":4
 },
 {
   "postcode":3047,
   "place_name":"Dallas",
   "state_name":"Victoria",
   "state_code":"VIC",
   "latitude":-37.6708,
   "longitude":144.9354,
   "accuracy":4
 },
 {
   "postcode":3047,
   "place_name":"Broadmeadows",
   "state_name":"Victoria",
   "state_code":"VIC",
   "latitude":-37.6802,
   "longitude":144.9188,
   "accuracy":4
 },
 {
   "postcode":3047,
   "place_name":"Jacana",
   "state_name":"Victoria",
   "state_code":"VIC",
   "latitude":-37.6878,
   "longitude":144.9111,
   "accuracy":4
 },
 {
   "postcode":3048,
   "place_name":"Coolaroo",
   "state_name":"Victoria",
   "state_code":"VIC",
   "latitude":-37.6568,
   "longitude":144.9346,
   "accuracy":4
 },
 {
   "postcode":3048,
   "place_name":"Meadow Heights",
   "state_name":"Victoria",
   "state_code":"VIC",
   "latitude":-37.6512,
   "longitude":144.9186,
   "accuracy":4
 },
 {
   "postcode":3049,
   "place_name":"Westmeadows",
   "state_name":"Victoria",
   "state_code":"VIC",
   "latitude":-37.676,
   "longitude":144.887,
   "accuracy":4
 },
 {
   "postcode":3049,
   "place_name":"Attwood",
   "state_name":"Victoria",
   "state_code":"VIC",
   "latitude":-37.6696,
   "longitude":144.8868,
   "accuracy":4
 },
 {
   "postcode":3050,
   "place_name":"Royal Melbourne Hospital",
   "state_name":"Victoria",
   "state_code":"VIC",
   "latitude":-37.7981,
   "longitude":144.9555,
   "accuracy":1
 },
 {
   "postcode":3051,
   "place_name":"North Melbourne",
   "state_name":"Victoria",
   "state_code":"VIC",
   "latitude":-37.8,
   "longitude":144.9667,
   "accuracy":4
 },
 {
   "postcode":3051,
   "place_name":"Hotham Hill",
   "state_name":"Victoria",
   "state_code":"VIC",
   "latitude":-37.7984,
   "longitude":144.9449,
   "accuracy":3
 },
 {
   "postcode":3052,
   "place_name":"Parkville",
   "state_name":"Victoria",
   "state_code":"VIC",
   "latitude":-37.7833,
   "longitude":144.95,
   "accuracy":4
 },
 {
   "postcode":3052,
   "place_name":"Melbourne University",
   "state_name":"Victoria",
   "state_code":"VIC",
   "latitude":-37.7603,
   "longitude":144.9502,
   "accuracy":3
 },
 {
   "postcode":3053,
   "place_name":"Carlton",
   "state_name":"Victoria",
   "state_code":"VIC",
   "latitude":-37.8,
   "longitude":144.9667,
   "accuracy":4
 },
 {
   "postcode":3053,
   "place_name":"Carlton South",
   "state_name":"Victoria",
   "state_code":"VIC",
   "latitude":-37.8004,
   "longitude":144.9681,
   "accuracy":3
 },
 {
   "postcode":3054,
   "place_name":"Princes Hill",
   "state_name":"Victoria",
   "state_code":"VIC",
   "latitude":-37.7818,
   "longitude":144.9666,
   "accuracy":4
 },
 {
   "postcode":3054,
   "place_name":"Carlton North",
   "state_name":"Victoria",
   "state_code":"VIC",
   "latitude":-37.7833,
   "longitude":144.9667,
   "accuracy":4
 },
 {
   "postcode":3055,
   "place_name":"Brunswick South",
   "state_name":"Victoria",
   "state_code":"VIC",
   "latitude":-37.7603,
   "longitude":144.9502,
   "accuracy":3
 },
 {
   "postcode":3055,
   "place_name":"Brunswick West",
   "state_name":"Victoria",
   "state_code":"VIC",
   "latitude":-37.7646,
   "longitude":144.9438,
   "accuracy":4
 },
 {
   "postcode":3055,
   "place_name":"Moreland West",
   "state_name":"Victoria",
   "state_code":"VIC",
   "latitude":-37.7603,
   "longitude":144.9502,
   "accuracy":3
 },
 {
   "postcode":3055,
   "place_name":"Moonee Vale",
   "state_name":"Victoria",
   "state_code":"VIC",
   "latitude":-37.7603,
   "longitude":144.9502,
   "accuracy":3
 },
 {
   "postcode":3056,
   "place_name":"Brunswick",
   "state_name":"Victoria",
   "state_code":"VIC",
   "latitude":-37.7667,
   "longitude":144.9667,
   "accuracy":4
 },
 {
   "postcode":3056,
   "place_name":"Brunswick North",
   "state_name":"Victoria",
   "state_code":"VIC",
   "latitude":-37.7667,
   "longitude":144.9667,
   "accuracy":3
 },
 {
   "postcode":3056,
   "place_name":"Brunswick Lower",
   "state_name":"Victoria",
   "state_code":"VIC",
   "latitude":-37.7667,
   "longitude":144.9667,
   "accuracy":3
 },
 {
   "postcode":3057,
   "place_name":"Sumner",
   "state_name":"Victoria",
   "state_code":"VIC",
   "latitude":-37.7603,
   "longitude":144.9502,
   "accuracy":3
 },
 {
   "postcode":3057,
   "place_name":"Brunswick East",
   "state_name":"Victoria",
   "state_code":"VIC",
   "latitude":-37.7725,
   "longitude":144.9724,
   "accuracy":4
 },
 {
   "postcode":3058,
   "place_name":"Coburg North",
   "state_name":"Victoria",
   "state_code":"VIC",
   "latitude":-37.7287,
   "longitude":144.9613,
   "accuracy":4
 },
 {
   "postcode":3058,
   "place_name":"Moreland",
   "state_name":"Victoria",
   "state_code":"VIC",
   "latitude":-37.7603,
   "longitude":144.9502,
   "accuracy":3
 },
 {
   "postcode":3058,
   "place_name":"Batman",
   "state_name":"Victoria",
   "state_code":"VIC",
   "latitude":-37.75,
   "longitude":144.9667,
   "accuracy":3
 },
 {
   "postcode":3058,
   "place_name":"Merlynston",
   "state_name":"Victoria",
   "state_code":"VIC",
   "latitude":-37.7603,
   "longitude":144.9502,
   "accuracy":3
 },
 {
   "postcode":3058,
   "place_name":"Coburg",
   "state_name":"Victoria",
   "state_code":"VIC",
   "latitude":-37.75,
   "longitude":144.9667,
   "accuracy":4
 },
 {
   "postcode":3059,
   "place_name":"Greenvale",
   "state_name":"Victoria",
   "state_code":"VIC",
   "latitude":-37.6333,
   "longitude":144.8667,
   "accuracy":4
 },
 {
   "postcode":3060,
   "place_name":"Fawkner",
   "state_name":"Victoria",
   "state_code":"VIC",
   "latitude":-37.7167,
   "longitude":144.9667,
   "accuracy":4
 },
 {
   "postcode":3061,
   "place_name":"Campbellfield",
   "state_name":"Victoria",
   "state_code":"VIC",
   "latitude":-37.6833,
   "longitude":144.95,
   "accuracy":4
 },
 {
   "postcode":3062,
   "place_name":"Somerton",
   "state_name":"Victoria",
   "state_code":"VIC",
   "latitude":-37.65,
   "longitude":144.9333,
   "accuracy":4
 },
 {
   "postcode":3063,
   "place_name":"Yuroke",
   "state_name":"Victoria",
   "state_code":"VIC",
   "latitude":-37.5911,
   "longitude":144.8782,
   "accuracy":4
 },
 {
   "postcode":3063,
   "place_name":"Oaklands Junction",
   "state_name":"Victoria",
   "state_code":"VIC",
   "latitude":-37.615,
   "longitude":144.8434,
   "accuracy":4
 },
 {
   "postcode":3064,
   "place_name":"Kalkallo",
   "state_name":"Victoria",
   "state_code":"VIC",
   "latitude":-37.5333,
   "longitude":144.95,
   "accuracy":4
 },
 {
   "postcode":3064,
   "place_name":"Mickleham",
   "state_name":"Victoria",
   "state_code":"VIC",
   "latitude":-37.5366,
   "longitude":144.902,
   "accuracy":4
 },
 {
   "postcode":3064,
   "place_name":"Donnybrook",
   "state_name":"Victoria",
   "state_code":"VIC",
   "latitude":-37.5333,
   "longitude":144.9833,
   "accuracy":4
 },
 {
   "postcode":3064,
   "place_name":"Roxburgh Park",
   "state_name":"Victoria",
   "state_code":"VIC",
   "latitude":-37.6258,
   "longitude":144.9255,
   "accuracy":4
 },
 {
   "postcode":3064,
   "place_name":"Craigieburn",
   "state_name":"Victoria",
   "state_code":"VIC",
   "latitude":-37.6,
   "longitude":144.95,
   "accuracy":4
 },
 {
   "postcode":3065,
   "place_name":"Fitzroy",
   "state_name":"Victoria",
   "state_code":"VIC",
   "latitude":-37.7984,
   "longitude":144.9783,
   "accuracy":4
 },
 {
   "postcode":3066,
   "place_name":"Collingwood",
   "state_name":"Victoria",
   "state_code":"VIC",
   "latitude":-37.8,
   "longitude":144.9833,
   "accuracy":4
 },
 {
   "postcode":3066,
   "place_name":"Collingwood North",
   "state_name":"Victoria",
   "state_code":"VIC",
   "latitude":-37.8,
   "longitude":144.9833,
   "accuracy":3
 },
 {
   "postcode":3067,
   "place_name":"Abbotsford",
   "state_name":"Victoria",
   "state_code":"VIC",
   "latitude":-37.8,
   "longitude":145,
   "accuracy":4
 },
 {
   "postcode":3068,
   "place_name":"Fitzroy North",
   "state_name":"Victoria",
   "state_code":"VIC",
   "latitude":-37.7886,
   "longitude":144.9788,
   "accuracy":4
 },
 {
   "postcode":3068,
   "place_name":"Clifton Hill",
   "state_name":"Victoria",
   "state_code":"VIC",
   "latitude":-37.7904,
   "longitude":144.9975,
   "accuracy":4
 },
 {
   "postcode":3070,
   "place_name":"Northcote South",
   "state_name":"Victoria",
   "state_code":"VIC",
   "latitude":-37.7667,
   "longitude":145,
   "accuracy":3
 },
 {
   "postcode":3070,
   "place_name":"Northcote",
   "state_name":"Victoria",
   "state_code":"VIC",
   "latitude":-37.7667,
   "longitude":145,
   "accuracy":4
 },
 {
   "postcode":3071,
   "place_name":"Thornbury",
   "state_name":"Victoria",
   "state_code":"VIC",
   "latitude":-37.75,
   "longitude":145,
   "accuracy":4
 },
 {
   "postcode":3072,
   "place_name":"Preston",
   "state_name":"Victoria",
   "state_code":"VIC",
   "latitude":-37.75,
   "longitude":145.0167,
   "accuracy":4
 },
 {
   "postcode":3072,
   "place_name":"Regent West",
   "state_name":"Victoria",
   "state_code":"VIC",
   "latitude":-37.7241,
   "longitude":145.0179,
   "accuracy":3
 },
 {
   "postcode":3072,
   "place_name":"Gilberton",
   "state_name":"Victoria",
   "state_code":"VIC",
   "latitude":-37.75,
   "longitude":145.0167,
   "accuracy":3
 },
 {
   "postcode":3072,
   "place_name":"Preston South",
   "state_name":"Victoria",
   "state_code":"VIC",
   "latitude":-37.7241,
   "longitude":145.0179,
   "accuracy":3
 },
 {
   "postcode":3072,
   "place_name":"Preston West",
   "state_name":"Victoria",
   "state_code":"VIC",
   "latitude":-37.75,
   "longitude":145.0167,
   "accuracy":3
 },
 {
   "postcode":3072,
   "place_name":"Northland Centre",
   "state_name":"Victoria",
   "state_code":"VIC",
   "latitude":-37.7241,
   "longitude":145.0179,
   "accuracy":3
 },
 {
   "postcode":3072,
   "place_name":"Preston Lower",
   "state_name":"Victoria",
   "state_code":"VIC",
   "latitude":-37.75,
   "longitude":145.0167,
   "accuracy":3
 },
 {
   "postcode":3073,
   "place_name":"Reservoir",
   "state_name":"Victoria",
   "state_code":"VIC",
   "latitude":-37.7167,
   "longitude":145,
   "accuracy":4
 },
 {
   "postcode":3073,
   "place_name":"Keon Park",
   "state_name":"Victoria",
   "state_code":"VIC",
   "latitude":-37.7,
   "longitude":145.0167,
   "accuracy":4
 },
 {
   "postcode":3074,
   "place_name":"Thomastown",
   "state_name":"Victoria",
   "state_code":"VIC",
   "latitude":-37.6833,
   "longitude":145.0167,
   "accuracy":4
 },
 {
   "postcode":3075,
   "place_name":"Lalor",
   "state_name":"Victoria",
   "state_code":"VIC",
   "latitude":-37.6667,
   "longitude":145.0167,
   "accuracy":4
 },
 {
   "postcode":3076,
   "place_name":"Epping Dc",
   "state_name":"Victoria",
   "state_code":"VIC",
   "latitude":-37.6307,
   "longitude":145.006,
   "accuracy":3
 },
 {
   "postcode":3076,
   "place_name":"Epping",
   "state_name":"Victoria",
   "state_code":"VIC",
   "latitude":-37.65,
   "longitude":145.0333,
   "accuracy":4
 },
 {
   "postcode":3078,
   "place_name":"Alphington",
   "state_name":"Victoria",
   "state_code":"VIC",
   "latitude":-37.7804,
   "longitude":145.0309,
   "accuracy":4
 },
 {
   "postcode":3078,
   "place_name":"Fairfield",
   "state_name":"Victoria",
   "state_code":"VIC",
   "latitude":-37.7798,
   "longitude":145.0176,
   "accuracy":4
 },
 {
   "postcode":3079,
   "place_name":"Ivanhoe",
   "state_name":"Victoria",
   "state_code":"VIC",
   "latitude":-37.769,
   "longitude":145.0431,
   "accuracy":4
 },
 {
   "postcode":3079,
   "place_name":"Ivanhoe East",
   "state_name":"Victoria",
   "state_code":"VIC",
   "latitude":-37.7832,
   "longitude":145.0525,
   "accuracy":4
 },
 {
   "postcode":3079,
   "place_name":"Ivanhoe North",
   "state_name":"Victoria",
   "state_code":"VIC",
   "latitude":-37.769,
   "longitude":145.0431,
   "accuracy":3
 },
 {
   "postcode":3081,
   "place_name":"Heidelberg West",
   "state_name":"Victoria",
   "state_code":"VIC",
   "latitude":-37.75,
   "longitude":145.0333,
   "accuracy":4
 },
 {
   "postcode":3081,
   "place_name":"Heidelberg Rgh",
   "state_name":"Victoria",
   "state_code":"VIC",
   "latitude":-37.743,
   "longitude":145.0464,
   "accuracy":3
 },
 {
   "postcode":3081,
   "place_name":"Bellfield",
   "state_name":"Victoria",
   "state_code":"VIC",
   "latitude":-37.7531,
   "longitude":145.0385,
   "accuracy":4
 },
 {
   "postcode":3081,
   "place_name":"Heidelberg Heights",
   "state_name":"Victoria",
   "state_code":"VIC",
   "latitude":-37.7431,
   "longitude":145.057,
   "accuracy":4
 },
 {
   "postcode":3082,
   "place_name":"Mill Park",
   "state_name":"Victoria",
   "state_code":"VIC",
   "latitude":-37.6667,
   "longitude":145.0667,
   "accuracy":4
 },
 {
   "postcode":3083,
   "place_name":"Kingsbury",
   "state_name":"Victoria",
   "state_code":"VIC",
   "latitude":-37.7141,
   "longitude":145.0351,
   "accuracy":4
 },
 {
   "postcode":3083,
   "place_name":"Bundoora",
   "state_name":"Victoria",
   "state_code":"VIC",
   "latitude":-37.6982,
   "longitude":145.0597,
   "accuracy":4
 },
 {
   "postcode":3083,
   "place_name":"La Trobe University",
   "state_name":"Victoria",
   "state_code":"VIC",
   "latitude":-37.7062,
   "longitude":145.0474,
   "accuracy":3
 },
 {
   "postcode":3084,
   "place_name":"Viewbank",
   "state_name":"Victoria",
   "state_code":"VIC",
   "latitude":-37.7399,
   "longitude":145.0932,
   "accuracy":4
 },
 {
   "postcode":3084,
   "place_name":"Banyule",
   "state_name":"Victoria",
   "state_code":"VIC",
   "latitude":-37.7464,
   "longitude":145.0771,
   "accuracy":3
 },
 {
   "postcode":3084,
   "place_name":"Rosanna",
   "state_name":"Victoria",
   "state_code":"VIC",
   "latitude":-37.7396,
   "longitude":145.0697,
   "accuracy":4
 },
 {
   "postcode":3084,
   "place_name":"Heidelberg",
   "state_name":"Victoria",
   "state_code":"VIC",
   "latitude":-37.75,
   "longitude":145.0667,
   "accuracy":4
 },
 {
   "postcode":3084,
   "place_name":"Eaglemont",
   "state_name":"Victoria",
   "state_code":"VIC",
   "latitude":-37.7638,
   "longitude":145.0638,
   "accuracy":4
 },
 {
   "postcode":3085,
   "place_name":"Yallambie",
   "state_name":"Victoria",
   "state_code":"VIC",
   "latitude":-37.7251,
   "longitude":145.0935,
   "accuracy":4
 },
 {
   "postcode":3085,
   "place_name":"Macleod West",
   "state_name":"Victoria",
   "state_code":"VIC",
   "latitude":-37.7228,
   "longitude":145.0817,
   "accuracy":3
 },
 {
   "postcode":3085,
   "place_name":"Macleod",
   "state_name":"Victoria",
   "state_code":"VIC",
   "latitude":-37.7204,
   "longitude":145.0698,
   "accuracy":4
 },
 {
   "postcode":3086,
   "place_name":"La Trobe University",
   "state_name":"Victoria",
   "state_code":"VIC",
   "latitude":-37.7173,
   "longitude":145.0826,
   "accuracy":1
 },
 {
   "postcode":3087,
   "place_name":"Watsonia North",
   "state_name":"Victoria",
   "state_code":"VIC",
   "latitude":-37.6998,
   "longitude":145.0847,
   "accuracy":4
 },
 {
   "postcode":3087,
   "place_name":"Watsonia",
   "state_name":"Victoria",
   "state_code":"VIC",
   "latitude":-37.7167,
   "longitude":145.0833,
   "accuracy":4
 },
 {
   "postcode":3088,
   "place_name":"Saint Helena",
   "state_name":"Victoria",
   "state_code":"VIC",
   "latitude":-37.7,
   "longitude":145.1333,
   "accuracy":4
 },
 {
   "postcode":3088,
   "place_name":"Briar Hill",
   "state_name":"Victoria",
   "state_code":"VIC",
   "latitude":-37.7167,
   "longitude":145.1167,
   "accuracy":4
 },
 {
   "postcode":3088,
   "place_name":"Greensborough",
   "state_name":"Victoria",
   "state_code":"VIC",
   "latitude":-37.7046,
   "longitude":145.103,
   "accuracy":4
 },
 {
   "postcode":3088,
   "place_name":"St Helena",
   "state_name":"Victoria",
   "state_code":"VIC",
   "latitude":-37.6895,
   "longitude":145.1296,
   "accuracy":4
 },
 {
   "postcode":3089,
   "place_name":"Diamond Creek",
   "state_name":"Victoria",
   "state_code":"VIC",
   "latitude":-37.6667,
   "longitude":145.15,
   "accuracy":4
 },
 {
   "postcode":3090,
   "place_name":"Plenty",
   "state_name":"Victoria",
   "state_code":"VIC",
   "latitude":-37.6667,
   "longitude":145.1167,
   "accuracy":4
 },
 {
   "postcode":3091,
   "place_name":"Yarrambat",
   "state_name":"Victoria",
   "state_code":"VIC",
   "latitude":-37.6375,
   "longitude":145.1349,
   "accuracy":4
 },
 {
   "postcode":3093,
   "place_name":"Lower Plenty",
   "state_name":"Victoria",
   "state_code":"VIC",
   "latitude":-37.7333,
   "longitude":145.1167,
   "accuracy":4
 },
 {
   "postcode":3094,
   "place_name":"Montmorency",
   "state_name":"Victoria",
   "state_code":"VIC",
   "latitude":-37.7167,
   "longitude":145.1167,
   "accuracy":4
 },
 {
   "postcode":3095,
   "place_name":"Research",
   "state_name":"Victoria",
   "state_code":"VIC",
   "latitude":-37.7,
   "longitude":145.1833,
   "accuracy":4
 },
 {
   "postcode":3095,
   "place_name":"Eltham",
   "state_name":"Victoria",
   "state_code":"VIC",
   "latitude":-37.7333,
   "longitude":145.15,
   "accuracy":4
 },
 {
   "postcode":3095,
   "place_name":"Eltham North",
   "state_name":"Victoria",
   "state_code":"VIC",
   "latitude":-37.7,
   "longitude":145.15,
   "accuracy":4
 },
 {
   "postcode":3096,
   "place_name":"Wattle Glen",
   "state_name":"Victoria",
   "state_code":"VIC",
   "latitude":-37.6667,
   "longitude":145.1833,
   "accuracy":4
 },
 {
   "postcode":3097,
   "place_name":"Bend Of Islands",
   "state_name":"Victoria",
   "state_code":"VIC",
   "latitude":-37.7008,
   "longitude":145.2848,
   "accuracy":4
 },
 {
   "postcode":3097,
   "place_name":"Kangaroo Ground",
   "state_name":"Victoria",
   "state_code":"VIC",
   "latitude":-37.6892,
   "longitude":145.2317,
   "accuracy":4
 },
 {
   "postcode":3097,
   "place_name":"Watsons Creek",
   "state_name":"Victoria",
   "state_code":"VIC",
   "latitude":-37.6833,
   "longitude":145.2333,
   "accuracy":4
 },
 {
   "postcode":3099,
   "place_name":"Strathewen",
   "state_name":"Victoria",
   "state_code":"VIC",
   "latitude":-37.55,
   "longitude":145.2667,
   "accuracy":4
 },
 {
   "postcode":3099,
   "place_name":"Hurstbridge",
   "state_name":"Victoria",
   "state_code":"VIC",
   "latitude":-37.6416,
   "longitude":145.1941,
   "accuracy":4
 },
 {
   "postcode":3099,
   "place_name":"Arthurs Creek",
   "state_name":"Victoria",
   "state_code":"VIC",
   "latitude":-37.5833,
   "longitude":145.2,
   "accuracy":4
 },
 {
   "postcode":3099,
   "place_name":"Cottles Bridge",
   "state_name":"Victoria",
   "state_code":"VIC",
   "latitude":-37.6333,
   "longitude":145.2167,
   "accuracy":4
 },
 {
   "postcode":3099,
   "place_name":"Nutfield",
   "state_name":"Victoria",
   "state_code":"VIC",
   "latitude":-37.6167,
   "longitude":145.1833,
   "accuracy":4
 },
 {
   "postcode":3101,
   "place_name":"Kew",
   "state_name":"Victoria",
   "state_code":"VIC",
   "latitude":-37.8064,
   "longitude":145.0309,
   "accuracy":4
 },
 {
   "postcode":3101,
   "place_name":"Cotham",
   "state_name":"Victoria",
   "state_code":"VIC",
   "latitude":-37.8064,
   "longitude":145.0309,
   "accuracy":3
 },
 {
   "postcode":3102,
   "place_name":"Kew East",
   "state_name":"Victoria",
   "state_code":"VIC",
   "latitude":-37.7976,
   "longitude":145.0538,
   "accuracy":4
 },
 {
   "postcode":3103,
   "place_name":"Balwyn",
   "state_name":"Victoria",
   "state_code":"VIC",
   "latitude":-37.8117,
   "longitude":145.081,
   "accuracy":4
 },
 {
   "postcode":3103,
   "place_name":"Stradbroke Park",
   "state_name":"Victoria",
   "state_code":"VIC",
   "latitude":-37.8117,
   "longitude":145.081,
   "accuracy":3
 },
 {
   "postcode":3103,
   "place_name":"Deepdene",
   "state_name":"Victoria",
   "state_code":"VIC",
   "latitude":-37.8167,
   "longitude":145.0667,
   "accuracy":4
 },
 {
   "postcode":3103,
   "place_name":"Balwyn East",
   "state_name":"Victoria",
   "state_code":"VIC",
   "latitude":-37.8117,
   "longitude":145.081,
   "accuracy":3
 },
 {
   "postcode":3104,
   "place_name":"Balwyn North",
   "state_name":"Victoria",
   "state_code":"VIC",
   "latitude":-37.7909,
   "longitude":145.0939,
   "accuracy":4
 },
 {
   "postcode":3104,
   "place_name":"Greythorn",
   "state_name":"Victoria",
   "state_code":"VIC",
   "latitude":-37.7909,
   "longitude":145.0939,
   "accuracy":3
 },
 {
   "postcode":3105,
   "place_name":"Bulleen",
   "state_name":"Victoria",
   "state_code":"VIC",
   "latitude":-37.7667,
   "longitude":145.0833,
   "accuracy":4
 },
 {
   "postcode":3106,
   "place_name":"Templestowe",
   "state_name":"Victoria",
   "state_code":"VIC",
   "latitude":-37.75,
   "longitude":145.1167,
   "accuracy":4
 },
 {
   "postcode":3107,
   "place_name":"Templestowe Lower",
   "state_name":"Victoria",
   "state_code":"VIC",
   "latitude":-37.7667,
   "longitude":145.1167,
   "accuracy":4
 },
 {
   "postcode":3108,
   "place_name":"Doncaster",
   "state_name":"Victoria",
   "state_code":"VIC",
   "latitude":-37.7883,
   "longitude":145.1237,
   "accuracy":4
 },
 {
   "postcode":3109,
   "place_name":"Tunstall Square Po",
   "state_name":"Victoria",
   "state_code":"VIC",
   "latitude":-37.7795,
   "longitude":145.1638,
   "accuracy":3
 },
 {
   "postcode":3109,
   "place_name":"Doncaster East",
   "state_name":"Victoria",
   "state_code":"VIC",
   "latitude":-37.7876,
   "longitude":145.1489,
   "accuracy":4
 },
 {
   "postcode":3109,
   "place_name":"Doncaster Heights",
   "state_name":"Victoria",
   "state_code":"VIC",
   "latitude":-37.7795,
   "longitude":145.1638,
   "accuracy":3
 },
 {
   "postcode":3110,
   "place_name":"Nunawading Bc",
   "state_name":"Victoria",
   "state_code":"VIC",
   "latitude":-37.7576,
   "longitude":145.2408,
   "accuracy":1
 },
 {
   "postcode":3111,
   "place_name":"Donvale",
   "state_name":"Victoria",
   "state_code":"VIC",
   "latitude":-37.7891,
   "longitude":145.1749,
   "accuracy":4
 },
 {
   "postcode":3113,
   "place_name":"Warrandyte",
   "state_name":"Victoria",
   "state_code":"VIC",
   "latitude":-37.75,
   "longitude":145.2333,
   "accuracy":4
 },
 {
   "postcode":3113,
   "place_name":"North Warrandyte",
   "state_name":"Victoria",
   "state_code":"VIC",
   "latitude":-37.7292,
   "longitude":145.2157,
   "accuracy":4
 },
 {
   "postcode":3114,
   "place_name":"Park Orchards",
   "state_name":"Victoria",
   "state_code":"VIC",
   "latitude":-37.7769,
   "longitude":145.2146,
   "accuracy":4
 },
 {
   "postcode":3115,
   "place_name":"Wonga Park",
   "state_name":"Victoria",
   "state_code":"VIC",
   "latitude":-37.7333,
   "longitude":145.2667,
   "accuracy":4
 },
 {
   "postcode":3116,
   "place_name":"Chirnside Park",
   "state_name":"Victoria",
   "state_code":"VIC",
   "latitude":-37.7386,
   "longitude":145.3143,
   "accuracy":4
 },
 {
   "postcode":3121,
   "place_name":"Burnley",
   "state_name":"Victoria",
   "state_code":"VIC",
   "latitude":-37.8286,
   "longitude":145.0077,
   "accuracy":4
 },
 {
   "postcode":3121,
   "place_name":"Cremorne",
   "state_name":"Victoria",
   "state_code":"VIC",
   "latitude":-37.8333,
   "longitude":145,
   "accuracy":4
 },
 {
   "postcode":3121,
   "place_name":"Richmond",
   "state_name":"Victoria",
   "state_code":"VIC",
   "latitude":-37.8182,
   "longitude":145.0018,
   "accuracy":4
 },
 {
   "postcode":3121,
   "place_name":"Richmond East",
   "state_name":"Victoria",
   "state_code":"VIC",
   "latitude":-37.8271,
   "longitude":145.0064,
   "accuracy":3
 },
 {
   "postcode":3121,
   "place_name":"Burnley North",
   "state_name":"Victoria",
   "state_code":"VIC",
   "latitude":-37.8271,
   "longitude":145.0064,
   "accuracy":3
 },
 {
   "postcode":3121,
   "place_name":"Richmond South",
   "state_name":"Victoria",
   "state_code":"VIC",
   "latitude":-37.8271,
   "longitude":145.0064,
   "accuracy":3
 },
 {
   "postcode":3121,
   "place_name":"Richmond North",
   "state_name":"Victoria",
   "state_code":"VIC",
   "latitude":-37.8271,
   "longitude":145.0064,
   "accuracy":3
 },
 {
   "postcode":3122,
   "place_name":"Glenferrie South",
   "state_name":"Victoria",
   "state_code":"VIC",
   "latitude":-37.8344,
   "longitude":145.0397,
   "accuracy":3
 },
 {
   "postcode":3122,
   "place_name":"Auburn South",
   "state_name":"Victoria",
   "state_code":"VIC",
   "latitude":-37.8333,
   "longitude":145.05,
   "accuracy":4
 },
 {
   "postcode":3122,
   "place_name":"Hawthorn",
   "state_name":"Victoria",
   "state_code":"VIC",
   "latitude":-37.8199,
   "longitude":145.0358,
   "accuracy":4
 },
 {
   "postcode":3122,
   "place_name":"Hawthorn North",
   "state_name":"Victoria",
   "state_code":"VIC",
   "latitude":-37.85,
   "longitude":145.0333,
   "accuracy":3
 },
 {
   "postcode":3122,
   "place_name":"Hawthorn West",
   "state_name":"Victoria",
   "state_code":"VIC",
   "latitude":-37.8344,
   "longitude":145.0397,
   "accuracy":3
 },
 {
   "postcode":3123,
   "place_name":"Auburn",
   "state_name":"Victoria",
   "state_code":"VIC",
   "latitude":-37.8167,
   "longitude":145.05,
   "accuracy":4
 },
 {
   "postcode":3123,
   "place_name":"Hawthorn East",
   "state_name":"Victoria",
   "state_code":"VIC",
   "latitude":-37.8248,
   "longitude":145.0464,
   "accuracy":4
 },
 {
   "postcode":3124,
   "place_name":"Camberwell North",
   "state_name":"Victoria",
   "state_code":"VIC",
   "latitude":-37.8248,
   "longitude":145.0705,
   "accuracy":3
 },
 {
   "postcode":3124,
   "place_name":"Camberwell",
   "state_name":"Victoria",
   "state_code":"VIC",
   "latitude":-37.8421,
   "longitude":145.0694,
   "accuracy":4
 },
 {
   "postcode":3124,
   "place_name":"Camberwell West",
   "state_name":"Victoria",
   "state_code":"VIC",
   "latitude":-37.8248,
   "longitude":145.0705,
   "accuracy":3
 },
 {
   "postcode":3124,
   "place_name":"Camberwell South",
   "state_name":"Victoria",
   "state_code":"VIC",
   "latitude":-37.8248,
   "longitude":145.0705,
   "accuracy":3
 },
 {
   "postcode":3124,
   "place_name":"Hartwell",
   "state_name":"Victoria",
   "state_code":"VIC",
   "latitude":-37.8421,
   "longitude":145.0694,
   "accuracy":3
 },
 {
   "postcode":3124,
   "place_name":"Middle Camberwell",
   "state_name":"Victoria",
   "state_code":"VIC",
   "latitude":-37.8248,
   "longitude":145.0705,
   "accuracy":3
 },
 {
   "postcode":3125,
   "place_name":"Burwood",
   "state_name":"Victoria",
   "state_code":"VIC",
   "latitude":-37.8505,
   "longitude":145.0949,
   "accuracy":4
 },
 {
   "postcode":3125,
   "place_name":"Surrey Hills South",
   "state_name":"Victoria",
   "state_code":"VIC",
   "latitude":-37.8498,
   "longitude":145.119,
   "accuracy":3
 },
 {
   "postcode":3125,
   "place_name":"Bennettswood",
   "state_name":"Victoria",
   "state_code":"VIC",
   "latitude":-37.8495,
   "longitude":145.1114,
   "accuracy":3
 },
 {
   "postcode":3126,
   "place_name":"Canterbury",
   "state_name":"Victoria",
   "state_code":"VIC",
   "latitude":-37.8247,
   "longitude":145.0848,
   "accuracy":4
 },
 {
   "postcode":3126,
   "place_name":"Camberwell East",
   "state_name":"Victoria",
   "state_code":"VIC",
   "latitude":-37.8248,
   "longitude":145.0705,
   "accuracy":3
 },
 {
   "postcode":3127,
   "place_name":"Surrey Hills",
   "state_name":"Victoria",
   "state_code":"VIC",
   "latitude":-37.8252,
   "longitude":145.1004,
   "accuracy":4
 },
 {
   "postcode":3127,
   "place_name":"Surrey Hills North",
   "state_name":"Victoria",
   "state_code":"VIC",
   "latitude":-37.8128,
   "longitude":145.1043,
   "accuracy":3
 },
 {
   "postcode":3127,
   "place_name":"Mont Albert",
   "state_name":"Victoria",
   "state_code":"VIC",
   "latitude":-37.8167,
   "longitude":145.1,
   "accuracy":4
 },
 {
   "postcode":3128,
   "place_name":"Box Hill South",
   "state_name":"Victoria",
   "state_code":"VIC",
   "latitude":-37.8324,
   "longitude":145.121,
   "accuracy":4
 },
 {
   "postcode":3128,
   "place_name":"Box Hill Central",
   "state_name":"Victoria",
   "state_code":"VIC",
   "latitude":-37.8256,
   "longitude":145.1232,
   "accuracy":3
 },
 {
   "postcode":3128,
   "place_name":"Box Hill",
   "state_name":"Victoria",
   "state_code":"VIC",
   "latitude":-37.8189,
   "longitude":145.1254,
   "accuracy":4
 },
 {
   "postcode":3128,
   "place_name":"Wattle Park",
   "state_name":"Victoria",
   "state_code":"VIC",
   "latitude":-37.829,
   "longitude":145.1248,
   "accuracy":3
 },
 {
   "postcode":3128,
   "place_name":"Houston",
   "state_name":"Victoria",
   "state_code":"VIC",
   "latitude":-37.829,
   "longitude":145.1248,
   "accuracy":3
 },
 {
   "postcode":3129,
   "place_name":"Box Hill North",
   "state_name":"Victoria",
   "state_code":"VIC",
   "latitude":-37.8027,
   "longitude":145.1266,
   "accuracy":4
 },
 {
   "postcode":3129,
   "place_name":"Kerrimuir",
   "state_name":"Victoria",
   "state_code":"VIC",
   "latitude":-37.8048,
   "longitude":145.1229,
   "accuracy":3
 },
 {
   "postcode":3129,
   "place_name":"Mont Albert North",
   "state_name":"Victoria",
   "state_code":"VIC",
   "latitude":-37.8004,
   "longitude":145.1083,
   "accuracy":4
 },
 {
   "postcode":3130,
   "place_name":"Blackburn North",
   "state_name":"Victoria",
   "state_code":"VIC",
   "latitude":-37.8093,
   "longitude":145.1518,
   "accuracy":4
 },
 {
   "postcode":3130,
   "place_name":"Blackburn South",
   "state_name":"Victoria",
   "state_code":"VIC",
   "latitude":-37.8398,
   "longitude":145.1555,
   "accuracy":4
 },
 {
   "postcode":3130,
   "place_name":"Blackburn",
   "state_name":"Victoria",
   "state_code":"VIC",
   "latitude":-37.819,
   "longitude":145.1533,
   "accuracy":4
 },
 {
   "postcode":3130,
   "place_name":"Laburnum",
   "state_name":"Victoria",
   "state_code":"VIC",
   "latitude":-37.8232,
   "longitude":145.1511,
   "accuracy":3
 },
 {
   "postcode":3131,
   "place_name":"Forest Hill",
   "state_name":"Victoria",
   "state_code":"VIC",
   "latitude":-37.8333,
   "longitude":145.1833,
   "accuracy":4
 },
 {
   "postcode":3131,
   "place_name":"Brentford Square",
   "state_name":"Victoria",
   "state_code":"VIC",
   "latitude":-37.8275,
   "longitude":145.1739,
   "accuracy":3
 },
 {
   "postcode":3131,
   "place_name":"Nunawading",
   "state_name":"Victoria",
   "state_code":"VIC",
   "latitude":-37.8204,
   "longitude":145.1731,
   "accuracy":4
 },
 {
   "postcode":3132,
   "place_name":"Mitcham North",
   "state_name":"Victoria",
   "state_code":"VIC",
   "latitude":-37.8182,
   "longitude":145.199,
   "accuracy":3
 },
 {
   "postcode":3132,
   "place_name":"Mitcham",
   "state_name":"Victoria",
   "state_code":"VIC",
   "latitude":-37.8167,
   "longitude":145.2,
   "accuracy":4
 },
 {
   "postcode":3132,
   "place_name":"Rangeview",
   "state_name":"Victoria",
   "state_code":"VIC",
   "latitude":-37.8186,
   "longitude":145.1987,
   "accuracy":3
 },
 {
   "postcode":3133,
   "place_name":"Vermont",
   "state_name":"Victoria",
   "state_code":"VIC",
   "latitude":-37.8362,
   "longitude":145.1943,
   "accuracy":4
 },
 {
   "postcode":3133,
   "place_name":"Vermont South",
   "state_name":"Victoria",
   "state_code":"VIC",
   "latitude":-37.8575,
   "longitude":145.1827,
   "accuracy":4
 },
 {
   "postcode":3134,
   "place_name":"Warrandyte South",
   "state_name":"Victoria",
   "state_code":"VIC",
   "latitude":-37.7667,
   "longitude":145.25,
   "accuracy":4
 },
 {
   "postcode":3134,
   "place_name":"Heathwood",
   "state_name":"Victoria",
   "state_code":"VIC",
   "latitude":-37.7944,
   "longitude":145.2389,
   "accuracy":3
 },
 {
   "postcode":3134,
   "place_name":"Warranwood",
   "state_name":"Victoria",
   "state_code":"VIC",
   "latitude":-37.7756,
   "longitude":145.2473,
   "accuracy":4
 },
 {
   "postcode":3134,
   "place_name":"Ringwood North",
   "state_name":"Victoria",
   "state_code":"VIC",
   "latitude":-37.8,
   "longitude":145.2333,
   "accuracy":4
 },
 {
   "postcode":3134,
   "place_name":"Ringwood",
   "state_name":"Victoria",
   "state_code":"VIC",
   "latitude":-37.8167,
   "longitude":145.2333,
   "accuracy":4
 },
 {
   "postcode":3135,
   "place_name":"Bedford Road",
   "state_name":"Victoria",
   "state_code":"VIC",
   "latitude":-37.8213,
   "longitude":145.2489,
   "accuracy":3
 },
 {
   "postcode":3135,
   "place_name":"Ringwood East",
   "state_name":"Victoria",
   "state_code":"VIC",
   "latitude":-37.8167,
   "longitude":145.25,
   "accuracy":4
 },
 {
   "postcode":3135,
   "place_name":"Heathmont",
   "state_name":"Victoria",
   "state_code":"VIC",
   "latitude":-37.8333,
   "longitude":145.25,
   "accuracy":4
 },
 {
   "postcode":3136,
   "place_name":"Croydon North",
   "state_name":"Victoria",
   "state_code":"VIC",
   "latitude":-37.7833,
   "longitude":145.3,
   "accuracy":4
 },
 {
   "postcode":3136,
   "place_name":"Croydon South",
   "state_name":"Victoria",
   "state_code":"VIC",
   "latitude":-37.8123,
   "longitude":145.2681,
   "accuracy":4
 },
 {
   "postcode":3136,
   "place_name":"Croydon Hills",
   "state_name":"Victoria",
   "state_code":"VIC",
   "latitude":-37.7765,
   "longitude":145.2636,
   "accuracy":4
 },
 {
   "postcode":3136,
   "place_name":"Croydon",
   "state_name":"Victoria",
   "state_code":"VIC",
   "latitude":-37.8,
   "longitude":145.2833,
   "accuracy":4
 },
 {
   "postcode":3137,
   "place_name":"Kilsyth",
   "state_name":"Victoria",
   "state_code":"VIC",
   "latitude":-37.8,
   "longitude":145.3167,
   "accuracy":4
 },
 {
   "postcode":3137,
   "place_name":"Kilsyth South",
   "state_name":"Victoria",
   "state_code":"VIC",
   "latitude":-37.8203,
   "longitude":145.316,
   "accuracy":4
 },
 {
   "postcode":3138,
   "place_name":"Mooroolbark",
   "state_name":"Victoria",
   "state_code":"VIC",
   "latitude":-37.7833,
   "longitude":145.3,
   "accuracy":4
 },
 {
   "postcode":3139,
   "place_name":"Hoddles Creek",
   "state_name":"Victoria",
   "state_code":"VIC",
   "latitude":-37.8333,
   "longitude":145.5833,
   "accuracy":4
 },
 {
   "postcode":3139,
   "place_name":"Beenak",
   "state_name":"Victoria",
   "state_code":"VIC",
   "latitude":-37.9,
   "longitude":145.6333,
   "accuracy":4
 },
 {
   "postcode":3139,
   "place_name":"Don Valley",
   "state_name":"Victoria",
   "state_code":"VIC",
   "latitude":-37.7364,
   "longitude":145.5923,
   "accuracy":4
 },
 {
   "postcode":3139,
   "place_name":"Seville",
   "state_name":"Victoria",
   "state_code":"VIC",
   "latitude":-37.7667,
   "longitude":145.4667,
   "accuracy":4
 },
 {
   "postcode":3139,
   "place_name":"Woori Yallock",
   "state_name":"Victoria",
   "state_code":"VIC",
   "latitude":-37.7806,
   "longitude":145.5382,
   "accuracy":4
 },
 {
   "postcode":3139,
   "place_name":"Yellingbo",
   "state_name":"Victoria",
   "state_code":"VIC",
   "latitude":-37.846,
   "longitude":145.5291,
   "accuracy":4
 },
 {
   "postcode":3139,
   "place_name":"Wandin North",
   "state_name":"Victoria",
   "state_code":"VIC",
   "latitude":-37.7833,
   "longitude":145.4333,
   "accuracy":4
 },
 {
   "postcode":3139,
   "place_name":"Launching Place",
   "state_name":"Victoria",
   "state_code":"VIC",
   "latitude":-37.7806,
   "longitude":145.5683,
   "accuracy":4
 },
 {
   "postcode":3139,
   "place_name":"Seville East",
   "state_name":"Victoria",
   "state_code":"VIC",
   "latitude":-37.775,
   "longitude":145.4973,
   "accuracy":4
 },
 {
   "postcode":3139,
   "place_name":"Wandin East",
   "state_name":"Victoria",
   "state_code":"VIC",
   "latitude":-37.8151,
   "longitude":145.458,
   "accuracy":4
 },
 {
   "postcode":3140,
   "place_name":"Lilydale",
   "state_name":"Victoria",
   "state_code":"VIC",
   "latitude":-37.75,
   "longitude":145.35,
   "accuracy":4
 },
 {
   "postcode":3141,
   "place_name":"South Yarra",
   "state_name":"Victoria",
   "state_code":"VIC",
   "latitude":-37.8333,
   "longitude":144.9833,
   "accuracy":4
 },
 {
   "postcode":3142,
   "place_name":"Toorak",
   "state_name":"Victoria",
   "state_code":"VIC",
   "latitude":-37.8416,
   "longitude":145.0144,
   "accuracy":4
 },
 {
   "postcode":3142,
   "place_name":"Hawksburn",
   "state_name":"Victoria",
   "state_code":"VIC",
   "latitude":-37.8416,
   "longitude":145.0177,
   "accuracy":3
 },
 {
   "postcode":3143,
   "place_name":"Armadale",
   "state_name":"Victoria",
   "state_code":"VIC",
   "latitude":-37.8554,
   "longitude":145.0205,
   "accuracy":4
 },
 {
   "postcode":3143,
   "place_name":"Armadale North",
   "state_name":"Victoria",
   "state_code":"VIC",
   "latitude":-37.85,
   "longitude":145.0333,
   "accuracy":4
 },
 {
   "postcode":3144,
   "place_name":"Kooyong",
   "state_name":"Victoria",
   "state_code":"VIC",
   "latitude":-37.8399,
   "longitude":145.0352,
   "accuracy":4
 },
 {
   "postcode":3144,
   "place_name":"Malvern",
   "state_name":"Victoria",
   "state_code":"VIC",
   "latitude":-37.8626,
   "longitude":145.0281,
   "accuracy":4
 },
 {
   "postcode":3144,
   "place_name":"Malvern North",
   "state_name":"Victoria",
   "state_code":"VIC",
   "latitude":-37.8512,
   "longitude":145.0317,
   "accuracy":3
 },
 {
   "postcode":3145,
   "place_name":"Malvern East",
   "state_name":"Victoria",
   "state_code":"VIC",
   "latitude":-37.874,
   "longitude":145.0425,
   "accuracy":4
 },
 {
   "postcode":3145,
   "place_name":"Darling",
   "state_name":"Victoria",
   "state_code":"VIC",
   "latitude":-37.8775,
   "longitude":145.0624,
   "accuracy":3
 },
 {
   "postcode":3145,
   "place_name":"Caulfield East",
   "state_name":"Victoria",
   "state_code":"VIC",
   "latitude":-37.8833,
   "longitude":145.05,
   "accuracy":4
 },
 {
   "postcode":3145,
   "place_name":"Central Park",
   "state_name":"Victoria",
   "state_code":"VIC",
   "latitude":-37.8775,
   "longitude":145.0624,
   "accuracy":3
 },
 {
   "postcode":3145,
   "place_name":"Darling South",
   "state_name":"Victoria",
   "state_code":"VIC",
   "latitude":-37.874,
   "longitude":145.0425,
   "accuracy":3
 },
 {
   "postcode":3145,
   "place_name":"Wattletree Road Po",
   "state_name":"Victoria",
   "state_code":"VIC",
   "latitude":-37.874,
   "longitude":145.0425,
   "accuracy":3
 },
 {
   "postcode":3146,
   "place_name":"Glen Iris",
   "state_name":"Victoria",
   "state_code":"VIC",
   "latitude":-37.8667,
   "longitude":145.0667,
   "accuracy":4
 },
 {
   "postcode":3146,
   "place_name":"Tooronga",
   "state_name":"Victoria",
   "state_code":"VIC",
   "latitude":-37.8599,
   "longitude":145.0549,
   "accuracy":3
 },
 {
   "postcode":3147,
   "place_name":"Ashwood",
   "state_name":"Victoria",
   "state_code":"VIC",
   "latitude":-37.8666,
   "longitude":145.1055,
   "accuracy":4
 },
 {
   "postcode":3147,
   "place_name":"Ashburton",
   "state_name":"Victoria",
   "state_code":"VIC",
   "latitude":-37.8626,
   "longitude":145.0794,
   "accuracy":4
 },
 {
   "postcode":3148,
   "place_name":"Jordanville",
   "state_name":"Victoria",
   "state_code":"VIC",
   "latitude":-37.8833,
   "longitude":145.1167,
   "accuracy":3
 },
 {
   "postcode":3148,
   "place_name":"Holmesglen",
   "state_name":"Victoria",
   "state_code":"VIC",
   "latitude":-37.8821,
   "longitude":145.1002,
   "accuracy":3
 },
 {
   "postcode":3148,
   "place_name":"Chadstone",
   "state_name":"Victoria",
   "state_code":"VIC",
   "latitude":-37.8877,
   "longitude":145.0952,
   "accuracy":4
 },
 {
   "postcode":3148,
   "place_name":"Chadstone Centre",
   "state_name":"Victoria",
   "state_code":"VIC",
   "latitude":-37.8855,
   "longitude":145.1059,
   "accuracy":3
 },
 {
   "postcode":3149,
   "place_name":"Syndal",
   "state_name":"Victoria",
   "state_code":"VIC",
   "latitude":-37.8742,
   "longitude":145.1479,
   "accuracy":4
 },
 {
   "postcode":3149,
   "place_name":"Pinewood",
   "state_name":"Victoria",
   "state_code":"VIC",
   "latitude":-37.8756,
   "longitude":145.1387,
   "accuracy":3
 },
 {
   "postcode":3149,
   "place_name":"Mount Waverley",
   "state_name":"Victoria",
   "state_code":"VIC",
   "latitude":-37.8771,
   "longitude":145.1294,
   "accuracy":4
 },
 {
   "postcode":3150,
   "place_name":"Wheelers Hill",
   "state_name":"Victoria",
   "state_code":"VIC",
   "latitude":-37.9,
   "longitude":145.1833,
   "accuracy":4
 },
 {
   "postcode":3150,
   "place_name":"Brandon Park",
   "state_name":"Victoria",
   "state_code":"VIC",
   "latitude":-37.8891,
   "longitude":145.174,
   "accuracy":3
 },
 {
   "postcode":3150,
   "place_name":"Glen Waverley",
   "state_name":"Victoria",
   "state_code":"VIC",
   "latitude":-37.8781,
   "longitude":145.1648,
   "accuracy":4
 },
 {
   "postcode":3151,
   "place_name":"Burwood Heights",
   "state_name":"Victoria",
   "state_code":"VIC",
   "latitude":-37.8535,
   "longitude":145.1503,
   "accuracy":3
 },
 {
   "postcode":3151,
   "place_name":"Burwood East",
   "state_name":"Victoria",
   "state_code":"VIC",
   "latitude":-37.85,
   "longitude":145.15,
   "accuracy":4
 },
 {
   "postcode":3152,
   "place_name":"Wantirna South",
   "state_name":"Victoria",
   "state_code":"VIC",
   "latitude":-37.8833,
   "longitude":145.2167,
   "accuracy":4
 },
 {
   "postcode":3152,
   "place_name":"Knox City Centre",
   "state_name":"Victoria",
   "state_code":"VIC",
   "latitude":-37.8656,
   "longitude":145.2228,
   "accuracy":3
 },
 {
   "postcode":3152,
   "place_name":"Wantirna",
   "state_name":"Victoria",
   "state_code":"VIC",
   "latitude":-37.85,
   "longitude":145.2167,
   "accuracy":4
 },
 {
   "postcode":3152,
   "place_name":"Studfield",
   "state_name":"Victoria",
   "state_code":"VIC",
   "latitude":-37.8656,
   "longitude":145.2228,
   "accuracy":3
 },
 {
   "postcode":3153,
   "place_name":"Bayswater North",
   "state_name":"Victoria",
   "state_code":"VIC",
   "latitude":-37.8261,
   "longitude":145.2983,
   "accuracy":4
 },
 {
   "postcode":3153,
   "place_name":"Bayswater",
   "state_name":"Victoria",
   "state_code":"VIC",
   "latitude":-37.85,
   "longitude":145.2667,
   "accuracy":4
 },
 {
   "postcode":3154,
   "place_name":"The Basin",
   "state_name":"Victoria",
   "state_code":"VIC",
   "latitude":-37.85,
   "longitude":145.3167,
   "accuracy":4
 },
 {
   "postcode":3155,
   "place_name":"Boronia",
   "state_name":"Victoria",
   "state_code":"VIC",
   "latitude":-37.8667,
   "longitude":145.2833,
   "accuracy":4
 },
 {
   "postcode":3156,
   "place_name":"Lysterfield South",
   "state_name":"Victoria",
   "state_code":"VIC",
   "latitude":-37.9581,
   "longitude":145.2727,
   "accuracy":4
 },
 {
   "postcode":3156,
   "place_name":"Lysterfield",
   "state_name":"Victoria",
   "state_code":"VIC",
   "latitude":-37.9333,
   "longitude":145.3,
   "accuracy":4
 },
 {
   "postcode":3156,
   "place_name":"Mountain Gate",
   "state_name":"Victoria",
   "state_code":"VIC",
   "latitude":-37.9136,
   "longitude":145.2823,
   "accuracy":3
 },
 {
   "postcode":3156,
   "place_name":"Upper Ferntree Gully",
   "state_name":"Victoria",
   "state_code":"VIC",
   "latitude":-37.8942,
   "longitude":145.3124,
   "accuracy":4
 },
 {
   "postcode":3156,
   "place_name":"Ferntree Gully",
   "state_name":"Victoria",
   "state_code":"VIC",
   "latitude":-37.8846,
   "longitude":145.2954,
   "accuracy":4
 },
 {
   "postcode":3158,
   "place_name":"Upwey",
   "state_name":"Victoria",
   "state_code":"VIC",
   "latitude":-37.9,
   "longitude":145.3333,
   "accuracy":4
 },
 {
   "postcode":3159,
   "place_name":"Menzies Creek",
   "state_name":"Victoria",
   "state_code":"VIC",
   "latitude":-37.9167,
   "longitude":145.4,
   "accuracy":4
 },
 {
   "postcode":3159,
   "place_name":"Selby",
   "state_name":"Victoria",
   "state_code":"VIC",
   "latitude":-37.9167,
   "longitude":145.3833,
   "accuracy":4
 },
 {
   "postcode":3160,
   "place_name":"Tecoma",
   "state_name":"Victoria",
   "state_code":"VIC",
   "latitude":-37.903,
   "longitude":145.3447,
   "accuracy":4
 },
 {
   "postcode":3160,
   "place_name":"Belgrave South",
   "state_name":"Victoria",
   "state_code":"VIC",
   "latitude":-37.9333,
   "longitude":145.3333,
   "accuracy":4
 },
 {
   "postcode":3160,
   "place_name":"Belgrave Heights",
   "state_name":"Victoria",
   "state_code":"VIC",
   "latitude":-37.9167,
   "longitude":145.35,
   "accuracy":4
 },
 {
   "postcode":3160,
   "place_name":"Belgrave",
   "state_name":"Victoria",
   "state_code":"VIC",
   "latitude":-37.9,
   "longitude":145.35,
   "accuracy":4
 },
 {
   "postcode":3161,
   "place_name":"Caulfield North",
   "state_name":"Victoria",
   "state_code":"VIC",
   "latitude":-37.8739,
   "longitude":145.0249,
   "accuracy":4
 },
 {
   "postcode":3161,
   "place_name":"Caulfield Junction",
   "state_name":"Victoria",
   "state_code":"VIC",
   "latitude":-37.872,
   "longitude":145.0216,
   "accuracy":3
 },
 {
   "postcode":3162,
   "place_name":"Caulfield South",
   "state_name":"Victoria",
   "state_code":"VIC",
   "latitude":-37.8956,
   "longitude":145.026,
   "accuracy":4
 },
 {
   "postcode":3162,
   "place_name":"Hopetoun Gardens",
   "state_name":"Victoria",
   "state_code":"VIC",
   "latitude":-37.8914,
   "longitude":145.0254,
   "accuracy":3
 },
 {
   "postcode":3162,
   "place_name":"Caulfield",
   "state_name":"Victoria",
   "state_code":"VIC",
   "latitude":-37.8825,
   "longitude":145.0229,
   "accuracy":4
 },
 {
   "postcode":3163,
   "place_name":"Glen Huntly",
   "state_name":"Victoria",
   "state_code":"VIC",
   "latitude":-37.8833,
   "longitude":145.05,
   "accuracy":4
 },
 {
   "postcode":3163,
   "place_name":"Carnegie",
   "state_name":"Victoria",
   "state_code":"VIC",
   "latitude":-37.8833,
   "longitude":145.0667,
   "accuracy":4
 },
 {
   "postcode":3163,
   "place_name":"Booran Road Po",
   "state_name":"Victoria",
   "state_code":"VIC",
   "latitude":-37.8895,
   "longitude":145.0581,
   "accuracy":3
 },
 {
   "postcode":3163,
   "place_name":"Murrumbeena",
   "state_name":"Victoria",
   "state_code":"VIC",
   "latitude":-37.8902,
   "longitude":145.0711,
   "accuracy":4
 },
 {
   "postcode":3164,
   "place_name":"Dandenong South",
   "state_name":"Victoria",
   "state_code":"VIC",
   "latitude":-37.9833,
   "longitude":145.2,
   "accuracy":4
 },
 {
   "postcode":3165,
   "place_name":"Coatesville",
   "state_name":"Victoria",
   "state_code":"VIC",
   "latitude":-37.9221,
   "longitude":145.0667,
   "accuracy":3
 },
 {
   "postcode":3165,
   "place_name":"Bentleigh East",
   "state_name":"Victoria",
   "state_code":"VIC",
   "latitude":-37.9193,
   "longitude":145.053,
   "accuracy":4
 },
 {
   "postcode":3166,
   "place_name":"Oakleigh East",
   "state_name":"Victoria",
   "state_code":"VIC",
   "latitude":-37.9,
   "longitude":145.1167,
   "accuracy":4
 },
 {
   "postcode":3166,
   "place_name":"Oakleigh",
   "state_name":"Victoria",
   "state_code":"VIC",
   "latitude":-37.8981,
   "longitude":145.0884,
   "accuracy":4
 },
 {
   "postcode":3166,
   "place_name":"Huntingdale",
   "state_name":"Victoria",
   "state_code":"VIC",
   "latitude":-37.9077,
   "longitude":145.1085,
   "accuracy":4
 },
 {
   "postcode":3166,
   "place_name":"Hughesdale",
   "state_name":"Victoria",
   "state_code":"VIC",
   "latitude":-37.9,
   "longitude":145.0833,
   "accuracy":4
 },
 {
   "postcode":3167,
   "place_name":"Oakleigh South",
   "state_name":"Victoria",
   "state_code":"VIC",
   "latitude":-37.9,
   "longitude":145.1,
   "accuracy":4
 },
 {
   "postcode":3168,
   "place_name":"Notting Hill",
   "state_name":"Victoria",
   "state_code":"VIC",
   "latitude":-37.905,
   "longitude":145.1427,
   "accuracy":4
 },
 {
   "postcode":3168,
   "place_name":"Clayton",
   "state_name":"Victoria",
   "state_code":"VIC",
   "latitude":-37.9173,
   "longitude":145.1304,
   "accuracy":4
 },
 {
   "postcode":3169,
   "place_name":"Clarinda",
   "state_name":"Victoria",
   "state_code":"VIC",
   "latitude":-37.9333,
   "longitude":145.1167,
   "accuracy":4
 },
 {
   "postcode":3169,
   "place_name":"Clayton South",
   "state_name":"Victoria",
   "state_code":"VIC",
   "latitude":-37.9333,
   "longitude":145.1167,
   "accuracy":4
 },
 {
   "postcode":3170,
   "place_name":"Waverley Gardens",
   "state_name":"Victoria",
   "state_code":"VIC",
   "latitude":-37.9167,
   "longitude":145.2,
   "accuracy":3
 },
 {
   "postcode":3170,
   "place_name":"Mulgrave",
   "state_name":"Victoria",
   "state_code":"VIC",
   "latitude":-37.9167,
   "longitude":145.2,
   "accuracy":4
 },
 {
   "postcode":3171,
   "place_name":"Sandown Village",
   "state_name":"Victoria",
   "state_code":"VIC",
   "latitude":-37.9457,
   "longitude":145.1581,
   "accuracy":3
 },
 {
   "postcode":3171,
   "place_name":"Springvale",
   "state_name":"Victoria",
   "state_code":"VIC",
   "latitude":-37.9485,
   "longitude":145.1527,
   "accuracy":4
 },
 {
   "postcode":3172,
   "place_name":"Springvale South",
   "state_name":"Victoria",
   "state_code":"VIC",
   "latitude":-37.9667,
   "longitude":145.15,
   "accuracy":4
 },
 {
   "postcode":3172,
   "place_name":"Dingley Village",
   "state_name":"Victoria",
   "state_code":"VIC",
   "latitude":-37.9827,
   "longitude":145.1342,
   "accuracy":4
 },
 {
   "postcode":3173,
   "place_name":"Keysborough",
   "state_name":"Victoria",
   "state_code":"VIC",
   "latitude":-37.9912,
   "longitude":145.1739,
   "accuracy":4
 },
 {
   "postcode":3174,
   "place_name":"Noble Park",
   "state_name":"Victoria",
   "state_code":"VIC",
   "latitude":-37.9667,
   "longitude":145.1667,
   "accuracy":4
 },
 {
   "postcode":3174,
   "place_name":"Noble Park North",
   "state_name":"Victoria",
   "state_code":"VIC",
   "latitude":-37.9498,
   "longitude":145.1926,
   "accuracy":4
 },
 {
   "postcode":3175,
   "place_name":"Dandenong East",
   "state_name":"Victoria",
   "state_code":"VIC",
   "latitude":-37.9833,
   "longitude":145.2,
   "accuracy":3
 },
 {
   "postcode":3175,
   "place_name":"Dunearn",
   "state_name":"Victoria",
   "state_code":"VIC",
   "latitude":-37.9833,
   "longitude":145.2,
   "accuracy":3
 },
 {
   "postcode":3175,
   "place_name":"Dandenong South",
   "state_name":"Victoria",
   "state_code":"VIC",
   "latitude":-37.9833,
   "longitude":145.2,
   "accuracy":4
 },
 {
   "postcode":3175,
   "place_name":"Dandenong North",
   "state_name":"Victoria",
   "state_code":"VIC",
   "latitude":-37.9665,
   "longitude":145.2081,
   "accuracy":4
 },
 {
   "postcode":3175,
   "place_name":"Dandenong",
   "state_name":"Victoria",
   "state_code":"VIC",
   "latitude":-37.9833,
   "longitude":145.2,
   "accuracy":4
 },
 {
   "postcode":3175,
   "place_name":"Bangholme",
   "state_name":"Victoria",
   "state_code":"VIC",
   "latitude":-38.0384,
   "longitude":145.1869,
   "accuracy":4
 },
 {
   "postcode":3176,
   "place_name":"Scoresby Bc",
   "state_name":"Victoria",
   "state_code":"VIC",
   "latitude":-37.9636,
   "longitude":145.1943,
   "accuracy":1
 },
 {
   "postcode":3177,
   "place_name":"Doveton",
   "state_name":"Victoria",
   "state_code":"VIC",
   "latitude":-37.9935,
   "longitude":145.2389,
   "accuracy":4
 },
 {
   "postcode":3177,
   "place_name":"Eumemmerring",
   "state_name":"Victoria",
   "state_code":"VIC",
   "latitude":-37.9978,
   "longitude":145.2482,
   "accuracy":4
 },
 {
   "postcode":3178,
   "place_name":"Rowville",
   "state_name":"Victoria",
   "state_code":"VIC",
   "latitude":-37.9333,
   "longitude":145.2333,
   "accuracy":4
 },
 {
   "postcode":3179,
   "place_name":"Scoresby",
   "state_name":"Victoria",
   "state_code":"VIC",
   "latitude":-37.9,
   "longitude":145.2333,
   "accuracy":4
 },
 {
   "postcode":3180,
   "place_name":"Knoxfield",
   "state_name":"Victoria",
   "state_code":"VIC",
   "latitude":-37.8898,
   "longitude":145.2496,
   "accuracy":4
 },
 {
   "postcode":3181,
   "place_name":"Prahran",
   "state_name":"Victoria",
   "state_code":"VIC",
   "latitude":-37.8511,
   "longitude":144.9932,
   "accuracy":4
 },
 {
   "postcode":3181,
   "place_name":"Windsor",
   "state_name":"Victoria",
   "state_code":"VIC",
   "latitude":-37.8548,
   "longitude":144.9927,
   "accuracy":4
 },
 {
   "postcode":3181,
   "place_name":"Prahran East",
   "state_name":"Victoria",
   "state_code":"VIC",
   "latitude":-37.853,
   "longitude":144.9929,
   "accuracy":3
 },
 {
   "postcode":3182,
   "place_name":"St Kilda West",
   "state_name":"Victoria",
   "state_code":"VIC",
   "latitude":-37.8599,
   "longitude":144.9711,
   "accuracy":4
 },
 {
   "postcode":3182,
   "place_name":"St Kilda South",
   "state_name":"Victoria",
   "state_code":"VIC",
   "latitude":-37.8633,
   "longitude":144.9802,
   "accuracy":3
 },
 {
   "postcode":3182,
   "place_name":"St Kilda",
   "state_name":"Victoria",
   "state_code":"VIC",
   "latitude":-37.8633,
   "longitude":144.9802,
   "accuracy":3
 },
 {
   "postcode":3183,
   "place_name":"St Kilda East",
   "state_name":"Victoria",
   "state_code":"VIC",
   "latitude":-37.8659,
   "longitude":145.0002,
   "accuracy":4
 },
 {
   "postcode":3183,
   "place_name":"Balaclava",
   "state_name":"Victoria",
   "state_code":"VIC",
   "latitude":-37.8692,
   "longitude":144.9977,
   "accuracy":4
 },
 {
   "postcode":3184,
   "place_name":"Elwood",
   "state_name":"Victoria",
   "state_code":"VIC",
   "latitude":-37.8821,
   "longitude":144.9821,
   "accuracy":4
 },
 {
   "postcode":3184,
   "place_name":"Brighton Road",
   "state_name":"Victoria",
   "state_code":"VIC",
   "latitude":-37.8809,
   "longitude":144.9855,
   "accuracy":3
 },
 {
   "postcode":3185,
   "place_name":"Elsternwick",
   "state_name":"Victoria",
   "state_code":"VIC",
   "latitude":-37.8864,
   "longitude":145.0025,
   "accuracy":4
 },
 {
   "postcode":3185,
   "place_name":"Gardenvale",
   "state_name":"Victoria",
   "state_code":"VIC",
   "latitude":-37.8979,
   "longitude":145.0074,
   "accuracy":4
 },
 {
   "postcode":3185,
   "place_name":"Ripponlea",
   "state_name":"Victoria",
   "state_code":"VIC",
   "latitude":-37.8833,
   "longitude":145,
   "accuracy":4
 },
 {
   "postcode":3186,
   "place_name":"Dendy",
   "state_name":"Victoria",
   "state_code":"VIC",
   "latitude":-37.895,
   "longitude":145.0191,
   "accuracy":3
 },
 {
   "postcode":3186,
   "place_name":"Brighton",
   "state_name":"Victoria",
   "state_code":"VIC",
   "latitude":-37.9056,
   "longitude":145.0028,
   "accuracy":4
 },
 {
   "postcode":3186,
   "place_name":"Brighton North",
   "state_name":"Victoria",
   "state_code":"VIC",
   "latitude":-37.9069,
   "longitude":145.0053,
   "accuracy":4
 },
 {
   "postcode":3186,
   "place_name":"Were Street Po",
   "state_name":"Victoria",
   "state_code":"VIC",
   "latitude":-37.9057,
   "longitude":145.0067,
   "accuracy":3
 },
 {
   "postcode":3187,
   "place_name":"North Road",
   "state_name":"Victoria",
   "state_code":"VIC",
   "latitude":-37.9667,
   "longitude":145.0167,
   "accuracy":4
 },
 {
   "postcode":3187,
   "place_name":"Brighton East",
   "state_name":"Victoria",
   "state_code":"VIC",
   "latitude":-37.9023,
   "longitude":145.0173,
   "accuracy":4
 },
 {
   "postcode":3188,
   "place_name":"Hampton",
   "state_name":"Victoria",
   "state_code":"VIC",
   "latitude":-37.9372,
   "longitude":145.0046,
   "accuracy":4
 },
 {
   "postcode":3188,
   "place_name":"Hampton East",
   "state_name":"Victoria",
   "state_code":"VIC",
   "latitude":-37.937,
   "longitude":145.0286,
   "accuracy":4
 },
 {
   "postcode":3188,
   "place_name":"Hampton North",
   "state_name":"Victoria",
   "state_code":"VIC",
   "latitude":-37.9374,
   "longitude":145.0151,
   "accuracy":3
 },
 {
   "postcode":3189,
   "place_name":"Moorabbin",
   "state_name":"Victoria",
   "state_code":"VIC",
   "latitude":-37.9367,
   "longitude":145.0342,
   "accuracy":4
 },
 {
   "postcode":3189,
   "place_name":"Moorabbin East",
   "state_name":"Victoria",
   "state_code":"VIC",
   "latitude":-37.9367,
   "longitude":145.0342,
   "accuracy":4
 },
 {
   "postcode":3189,
   "place_name":"Wishart",
   "state_name":"Victoria",
   "state_code":"VIC",
   "latitude":-37.9415,
   "longitude":145.0578,
   "accuracy":3
 },
 {
   "postcode":3190,
   "place_name":"Highett",
   "state_name":"Victoria",
   "state_code":"VIC",
   "latitude":-37.95,
   "longitude":145.05,
   "accuracy":4
 },
 {
   "postcode":3191,
   "place_name":"Sandringham",
   "state_name":"Victoria",
   "state_code":"VIC",
   "latitude":-37.95,
   "longitude":145,
   "accuracy":4
 },
 {
   "postcode":3192,
   "place_name":"Cheltenham",
   "state_name":"Victoria",
   "state_code":"VIC",
   "latitude":-37.9694,
   "longitude":145.0481,
   "accuracy":4
 },
 {
   "postcode":3192,
   "place_name":"Cheltenham East",
   "state_name":"Victoria",
   "state_code":"VIC",
   "latitude":-37.9634,
   "longitude":145.0615,
   "accuracy":3
 },
 {
   "postcode":3192,
   "place_name":"Southland Centre",
   "state_name":"Victoria",
   "state_code":"VIC",
   "latitude":-37.9634,
   "longitude":145.0615,
   "accuracy":3
 },
 {
   "postcode":3193,
   "place_name":"Beaumaris",
   "state_name":"Victoria",
   "state_code":"VIC",
   "latitude":-37.9822,
   "longitude":145.0389,
   "accuracy":4
 },
 {
   "postcode":3193,
   "place_name":"Black Rock North",
   "state_name":"Victoria",
   "state_code":"VIC",
   "latitude":-37.9667,
   "longitude":145.0167,
   "accuracy":4
 },
 {
   "postcode":3193,
   "place_name":"Black Rock",
   "state_name":"Victoria",
   "state_code":"VIC",
   "latitude":-37.9736,
   "longitude":145.0164,
   "accuracy":4
 },
 {
   "postcode":3193,
   "place_name":"Cromer",
   "state_name":"Victoria",
   "state_code":"VIC",
   "latitude":-37.9773,
   "longitude":145.0323,
   "accuracy":3
 },
 {
   "postcode":3194,
   "place_name":"Mentone",
   "state_name":"Victoria",
   "state_code":"VIC",
   "latitude":-37.9833,
   "longitude":145.0667,
   "accuracy":4
 },
 {
   "postcode":3194,
   "place_name":"Mentone East",
   "state_name":"Victoria",
   "state_code":"VIC",
   "latitude":-37.9833,
   "longitude":145.0667,
   "accuracy":3
 },
 {
   "postcode":3194,
   "place_name":"Moorabbin Airport",
   "state_name":"Victoria",
   "state_code":"VIC",
   "latitude":-37.9799,
   "longitude":145.0815,
   "accuracy":3
 },
 {
   "postcode":3195,
   "place_name":"Braeside",
   "state_name":"Victoria",
   "state_code":"VIC",
   "latitude":-37.9995,
   "longitude":145.1163,
   "accuracy":4
 },
 {
   "postcode":3195,
   "place_name":"Mordialloc",
   "state_name":"Victoria",
   "state_code":"VIC",
   "latitude":-38,
   "longitude":145.0833,
   "accuracy":4
 },
 {
   "postcode":3195,
   "place_name":"Waterways",
   "state_name":"Victoria",
   "state_code":"VIC",
   "latitude":-38.0148,
   "longitude":145.1305,
   "accuracy":4
 },
 {
   "postcode":3195,
   "place_name":"Aspendale Gardens",
   "state_name":"Victoria",
   "state_code":"VIC",
   "latitude":-38.0228,
   "longitude":145.118,
   "accuracy":4
 },
 {
   "postcode":3195,
   "place_name":"Parkdale",
   "state_name":"Victoria",
   "state_code":"VIC",
   "latitude":-37.9942,
   "longitude":145.0734,
   "accuracy":4
 },
 {
   "postcode":3195,
   "place_name":"Aspendale",
   "state_name":"Victoria",
   "state_code":"VIC",
   "latitude":-38.0291,
   "longitude":145.1027,
   "accuracy":4
 },
 {
   "postcode":3196,
   "place_name":"Chelsea Heights",
   "state_name":"Victoria",
   "state_code":"VIC",
   "latitude":-38.0333,
   "longitude":145.1333,
   "accuracy":4
 },
 {
   "postcode":3196,
   "place_name":"Edithvale",
   "state_name":"Victoria",
   "state_code":"VIC",
   "latitude":-38.0372,
   "longitude":145.1097,
   "accuracy":4
 },
 {
   "postcode":3196,
   "place_name":"Bonbeach",
   "state_name":"Victoria",
   "state_code":"VIC",
   "latitude":-38.0653,
   "longitude":145.1228,
   "accuracy":4
 },
 {
   "postcode":3196,
   "place_name":"Chelsea",
   "state_name":"Victoria",
   "state_code":"VIC",
   "latitude":-38.05,
   "longitude":145.1167,
   "accuracy":4
 },
 {
   "postcode":3197,
   "place_name":"Carrum",
   "state_name":"Victoria",
   "state_code":"VIC",
   "latitude":-38.0833,
   "longitude":145.1333,
   "accuracy":4
 },
 {
   "postcode":3197,
   "place_name":"Patterson Lakes",
   "state_name":"Victoria",
   "state_code":"VIC",
   "latitude":-38.0693,
   "longitude":145.1433,
   "accuracy":4
 },
 {
   "postcode":3198,
   "place_name":"Belvedere Park",
   "state_name":"Victoria",
   "state_code":"VIC",
   "latitude":-38.1049,
   "longitude":145.1382,
   "accuracy":3
 },
 {
   "postcode":3198,
   "place_name":"Seaford",
   "state_name":"Victoria",
   "state_code":"VIC",
   "latitude":-38.1,
   "longitude":145.1333,
   "accuracy":4
 },
 {
   "postcode":3199,
   "place_name":"Karingal Centre",
   "state_name":"Victoria",
   "state_code":"VIC",
   "latitude":-38.1278,
   "longitude":145.15,
   "accuracy":3
 },
 {
   "postcode":3199,
   "place_name":"Frankston South",
   "state_name":"Victoria",
   "state_code":"VIC",
   "latitude":-38.166,
   "longitude":145.1364,
   "accuracy":4
 },
 {
   "postcode":3199,
   "place_name":"Frankston East",
   "state_name":"Victoria",
   "state_code":"VIC",
   "latitude":-38.1333,
   "longitude":145.1333,
   "accuracy":4
 },
 {
   "postcode":3199,
   "place_name":"Frankston",
   "state_name":"Victoria",
   "state_code":"VIC",
   "latitude":-38.1446,
   "longitude":145.1229,
   "accuracy":4
 },
 {
   "postcode":3199,
   "place_name":"Frankston Heights",
   "state_name":"Victoria",
   "state_code":"VIC",
   "latitude":-38.1278,
   "longitude":145.15,
   "accuracy":3
 },
 {
   "postcode":3199,
   "place_name":"Karingal",
   "state_name":"Victoria",
   "state_code":"VIC",
   "latitude":-38.1604,
   "longitude":145.1399,
   "accuracy":3
 },
 {
   "postcode":3200,
   "place_name":"Frankston North",
   "state_name":"Victoria",
   "state_code":"VIC",
   "latitude":-38.1235,
   "longitude":145.1484,
   "accuracy":4
 },
 {
   "postcode":3200,
   "place_name":"Pines Forest",
   "state_name":"Victoria",
   "state_code":"VIC",
   "latitude":-38.1213,
   "longitude":145.1552,
   "accuracy":3
 },
 {
   "postcode":3201,
   "place_name":"Carrum Downs",
   "state_name":"Victoria",
   "state_code":"VIC",
   "latitude":-38.0997,
   "longitude":145.1725,
   "accuracy":4
 },
 {
   "postcode":3202,
   "place_name":"Heatherton",
   "state_name":"Victoria",
   "state_code":"VIC",
   "latitude":-37.956,
   "longitude":145.0984,
   "accuracy":4
 },
 {
   "postcode":3204,
   "place_name":"Ormond",
   "state_name":"Victoria",
   "state_code":"VIC",
   "latitude":-37.9039,
   "longitude":145.0415,
   "accuracy":4
 },
 {
   "postcode":3204,
   "place_name":"Patterson",
   "state_name":"Victoria",
   "state_code":"VIC",
   "latitude":-38.0693,
   "longitude":145.1433,
   "accuracy":4
 },
 {
   "postcode":3204,
   "place_name":"Bentleigh",
   "state_name":"Victoria",
   "state_code":"VIC",
   "latitude":-37.9181,
   "longitude":145.0354,
   "accuracy":4
 },
 {
   "postcode":3204,
   "place_name":"Mckinnon",
   "state_name":"Victoria",
   "state_code":"VIC",
   "latitude":-37.9167,
   "longitude":145.05,
   "accuracy":4
 },
 {
   "postcode":3205,
   "place_name":"South Melbourne Dc",
   "state_name":"Victoria",
   "state_code":"VIC",
   "latitude":-37.8335,
   "longitude":144.9571,
   "accuracy":3
 },
 {
   "postcode":3205,
   "place_name":"South Melbourne",
   "state_name":"Victoria",
   "state_code":"VIC",
   "latitude":-37.8333,
   "longitude":144.9667,
   "accuracy":4
 },
 {
   "postcode":3206,
   "place_name":"Albert Park",
   "state_name":"Victoria",
   "state_code":"VIC",
   "latitude":-37.8333,
   "longitude":145,
   "accuracy":4
 },
 {
   "postcode":3206,
   "place_name":"Middle Park",
   "state_name":"Victoria",
   "state_code":"VIC",
   "latitude":-37.8512,
   "longitude":144.962,
   "accuracy":4
 },
 {
   "postcode":3207,
   "place_name":"Garden City",
   "state_name":"Victoria",
   "state_code":"VIC",
   "latitude":-37.836,
   "longitude":144.9183,
   "accuracy":4
 },
 {
   "postcode":3207,
   "place_name":"Port Melbourne",
   "state_name":"Victoria",
   "state_code":"VIC",
   "latitude":-37.8396,
   "longitude":144.9423,
   "accuracy":4
 },
 {
   "postcode":3211,
   "place_name":"Little River",
   "state_name":"Victoria",
   "state_code":"VIC",
   "latitude":-37.9667,
   "longitude":144.5,
   "accuracy":4
 },
 {
   "postcode":3212,
   "place_name":"Avalon",
   "state_name":"Victoria",
   "state_code":"VIC",
   "latitude":-38.0239,
   "longitude":144.4062,
   "accuracy":3
 },
 {
   "postcode":3212,
   "place_name":"Lara",
   "state_name":"Victoria",
   "state_code":"VIC",
   "latitude":-38.0239,
   "longitude":144.4062,
   "accuracy":4
 },
 {
   "postcode":3212,
   "place_name":"Point Wilson",
   "state_name":"Victoria",
   "state_code":"VIC",
   "latitude":-38.0239,
   "longitude":144.4062,
   "accuracy":3
 },
 {
   "postcode":3213,
   "place_name":"Anakie",
   "state_name":"Victoria",
   "state_code":"VIC",
   "latitude":-37.9167,
   "longitude":144.25,
   "accuracy":4
 },
 {
   "postcode":3213,
   "place_name":"Moorabool",
   "state_name":"Victoria",
   "state_code":"VIC",
   "latitude":-38.0833,
   "longitude":144.3,
   "accuracy":4
 },
 {
   "postcode":3213,
   "place_name":"Lovely Banks",
   "state_name":"Victoria",
   "state_code":"VIC",
   "latitude":-38.0667,
   "longitude":144.3333,
   "accuracy":4
 },
 {
   "postcode":3213,
   "place_name":"Batesford",
   "state_name":"Victoria",
   "state_code":"VIC",
   "latitude":-38.1,
   "longitude":144.2833,
   "accuracy":4
 },
 {
   "postcode":3214,
   "place_name":"Norlane",
   "state_name":"Victoria",
   "state_code":"VIC",
   "latitude":-38.1014,
   "longitude":144.3542,
   "accuracy":4
 },
 {
   "postcode":3214,
   "place_name":"North Shore",
   "state_name":"Victoria",
   "state_code":"VIC",
   "latitude":-38.1,
   "longitude":144.3667,
   "accuracy":4
 },
 {
   "postcode":3214,
   "place_name":"Corio",
   "state_name":"Victoria",
   "state_code":"VIC",
   "latitude":-38.0833,
   "longitude":144.3833,
   "accuracy":4
 },
 {
   "postcode":3215,
   "place_name":"Geelong North",
   "state_name":"Victoria",
   "state_code":"VIC",
   "latitude":-38.1,
   "longitude":144.3667,
   "accuracy":3
 },
 {
   "postcode":3215,
   "place_name":"Bell Post Hill",
   "state_name":"Victoria",
   "state_code":"VIC",
   "latitude":-38.0956,
   "longitude":144.3197,
   "accuracy":4
 },
 {
   "postcode":3215,
   "place_name":"North Geelong",
   "state_name":"Victoria",
   "state_code":"VIC",
   "latitude":-38.1095,
   "longitude":144.3513,
   "accuracy":4
 },
 {
   "postcode":3215,
   "place_name":"Rippleside",
   "state_name":"Victoria",
   "state_code":"VIC",
   "latitude":-38.1257,
   "longitude":144.355,
   "accuracy":4
 },
 {
   "postcode":3215,
   "place_name":"Hamlyn Heights",
   "state_name":"Victoria",
   "state_code":"VIC",
   "latitude":-38.1211,
   "longitude":144.328,
   "accuracy":4
 },
 {
   "postcode":3215,
   "place_name":"Drumcondra",
   "state_name":"Victoria",
   "state_code":"VIC",
   "latitude":-38.1302,
   "longitude":144.3538,
   "accuracy":4
 },
 {
   "postcode":3215,
   "place_name":"Bell Park",
   "state_name":"Victoria",
   "state_code":"VIC",
   "latitude":-38.1079,
   "longitude":144.3384,
   "accuracy":4
 },
 {
   "postcode":3216,
   "place_name":"Highton",
   "state_name":"Victoria",
   "state_code":"VIC",
   "latitude":-38.1706,
   "longitude":144.3114,
   "accuracy":4
 },
 {
   "postcode":3216,
   "place_name":"Belmont",
   "state_name":"Victoria",
   "state_code":"VIC",
   "latitude":-38.1748,
   "longitude":144.3428,
   "accuracy":4
 },
 {
   "postcode":3216,
   "place_name":"Freshwater Creek",
   "state_name":"Victoria",
   "state_code":"VIC",
   "latitude":-38.2667,
   "longitude":144.2833,
   "accuracy":4
 },
 {
   "postcode":3216,
   "place_name":"Grovedale East",
   "state_name":"Victoria",
   "state_code":"VIC",
   "latitude":-38.2113,
   "longitude":144.3244,
   "accuracy":3
 },
 {
   "postcode":3216,
   "place_name":"Mount Duneed",
   "state_name":"Victoria",
   "state_code":"VIC",
   "latitude":-38.2409,
   "longitude":144.3375,
   "accuracy":4
 },
 {
   "postcode":3216,
   "place_name":"Marshall",
   "state_name":"Victoria",
   "state_code":"VIC",
   "latitude":-38.2,
   "longitude":144.3667,
   "accuracy":4
 },
 {
   "postcode":3216,
   "place_name":"Wandana Heights",
   "state_name":"Victoria",
   "state_code":"VIC",
   "latitude":-38.1758,
   "longitude":144.3039,
   "accuracy":4
 },
 {
   "postcode":3216,
   "place_name":"Grovedale",
   "state_name":"Victoria",
   "state_code":"VIC",
   "latitude":-38.2,
   "longitude":144.35,
   "accuracy":4
 },
 {
   "postcode":3216,
   "place_name":"Waurn Ponds",
   "state_name":"Victoria",
   "state_code":"VIC",
   "latitude":-38.2167,
   "longitude":144.2833,
   "accuracy":4
 },
 {
   "postcode":3217,
   "place_name":"Deakin University",
   "state_name":"Victoria",
   "state_code":"VIC",
   "latitude":-38.1974,
   "longitude":144.3023,
   "accuracy":3
 },
 {
   "postcode":3217,
   "place_name":"Mount Duneed",
   "state_name":"Victoria",
   "state_code":"VIC",
   "latitude":-38.2409,
   "longitude":144.3375,
   "accuracy":4
 },
 {
   "postcode":3217,
   "place_name":"Freshwater Creek",
   "state_name":"Victoria",
   "state_code":"VIC",
   "latitude":-38.2667,
   "longitude":144.2833,
   "accuracy":4
 },
 {
   "postcode":3217,
   "place_name":"Charlemont",
   "state_name":"Victoria",
   "state_code":"VIC",
   "latitude":-38.2187,
   "longitude":144.3677,
   "accuracy":4
 },
 {
   "postcode":3217,
   "place_name":"Armstrong Creek",
   "state_name":"Victoria",
   "state_code":"VIC",
   "latitude":-38.2312,
   "longitude":144.3737,
   "accuracy":4
 },
 {
   "postcode":3218,
   "place_name":"Fyansford",
   "state_name":"Victoria",
   "state_code":"VIC",
   "latitude":-38.1333,
   "longitude":144.3167,
   "accuracy":4
 },
 {
   "postcode":3218,
   "place_name":"Stonehaven",
   "state_name":"Victoria",
   "state_code":"VIC",
   "latitude":-38.1236,
   "longitude":144.2291,
   "accuracy":4
 },
 {
   "postcode":3218,
   "place_name":"Geelong West",
   "state_name":"Victoria",
   "state_code":"VIC",
   "latitude":-38.1389,
   "longitude":144.3484,
   "accuracy":4
 },
 {
   "postcode":3218,
   "place_name":"Manifold Heights",
   "state_name":"Victoria",
   "state_code":"VIC",
   "latitude":-38.1376,
   "longitude":144.3337,
   "accuracy":4
 },
 {
   "postcode":3218,
   "place_name":"Herne Hill",
   "state_name":"Victoria",
   "state_code":"VIC",
   "latitude":-38.1343,
   "longitude":144.3241,
   "accuracy":4
 },
 {
   "postcode":3218,
   "place_name":"Murgheboluc",
   "state_name":"Victoria",
   "state_code":"VIC",
   "latitude":-38.0833,
   "longitude":144.1333,
   "accuracy":4
 },
 {
   "postcode":3219,
   "place_name":"Thomson",
   "state_name":"Victoria",
   "state_code":"VIC",
   "latitude":-38.1698,
   "longitude":144.3789,
   "accuracy":4
 },
 {
   "postcode":3219,
   "place_name":"St Albans Park",
   "state_name":"Victoria",
   "state_code":"VIC",
   "latitude":-38.188,
   "longitude":144.3921,
   "accuracy":4
 },
 {
   "postcode":3219,
   "place_name":"Newcomb",
   "state_name":"Victoria",
   "state_code":"VIC",
   "latitude":-38.1662,
   "longitude":144.3943,
   "accuracy":4
 },
 {
   "postcode":3219,
   "place_name":"East Geelong",
   "state_name":"Victoria",
   "state_code":"VIC",
   "latitude":-38.1557,
   "longitude":144.372,
   "accuracy":4
 },
 {
   "postcode":3219,
   "place_name":"Whittington",
   "state_name":"Victoria",
   "state_code":"VIC",
   "latitude":-38.1808,
   "longitude":144.3932,
   "accuracy":4
 },
 {
   "postcode":3219,
   "place_name":"Breakwater",
   "state_name":"Victoria",
   "state_code":"VIC",
   "latitude":-38.1799,
   "longitude":144.3676,
   "accuracy":4
 },
 {
   "postcode":3220,
   "place_name":"South Geelong",
   "state_name":"Victoria",
   "state_code":"VIC",
   "latitude":-38.1619,
   "longitude":144.3556,
   "accuracy":4
 },
 {
   "postcode":3220,
   "place_name":"Bareena",
   "state_name":"Victoria",
   "state_code":"VIC",
   "latitude":-38.1505,
   "longitude":144.3479,
   "accuracy":3
 },
 {
   "postcode":3220,
   "place_name":"Newtown",
   "state_name":"Victoria",
   "state_code":"VIC",
   "latitude":-38.1539,
   "longitude":144.3351,
   "accuracy":4
 },
 {
   "postcode":3220,
   "place_name":"Geelong",
   "state_name":"Victoria",
   "state_code":"VIC",
   "latitude":-38.1471,
   "longitude":144.3607,
   "accuracy":4
 },
 {
   "postcode":3221,
   "place_name":"Murgheboluc",
   "state_name":"Victoria",
   "state_code":"VIC",
   "latitude":-38.0833,
   "longitude":144.1333,
   "accuracy":4
 },
 {
   "postcode":3221,
   "place_name":"Fyansford",
   "state_name":"Victoria",
   "state_code":"VIC",
   "latitude":-38.1333,
   "longitude":144.3167,
   "accuracy":4
 },
 {
   "postcode":3221,
   "place_name":"Stonehaven",
   "state_name":"Victoria",
   "state_code":"VIC",
   "latitude":-38.1236,
   "longitude":144.2291,
   "accuracy":4
 },
 {
   "postcode":3221,
   "place_name":"Batesford",
   "state_name":"Victoria",
   "state_code":"VIC",
   "latitude":-38.1,
   "longitude":144.2833,
   "accuracy":4
 },
 {
   "postcode":3221,
   "place_name":"Gnarwarre",
   "state_name":"Victoria",
   "state_code":"VIC",
   "latitude":-38.1667,
   "longitude":144.15,
   "accuracy":4
 },
 {
   "postcode":3221,
   "place_name":"Moolap",
   "state_name":"Victoria",
   "state_code":"VIC",
   "latitude":-38.1833,
   "longitude":144.4333,
   "accuracy":4
 },
 {
   "postcode":3221,
   "place_name":"Bellarine",
   "state_name":"Victoria",
   "state_code":"VIC",
   "latitude":-38.1333,
   "longitude":144.6167,
   "accuracy":4
 },
 {
   "postcode":3221,
   "place_name":"Geelong Mc",
   "state_name":"Victoria",
   "state_code":"VIC",
   "latitude":-38.2043,
   "longitude":144.223,
   "accuracy":3
 },
 {
   "postcode":3221,
   "place_name":"Ceres",
   "state_name":"Victoria",
   "state_code":"VIC",
   "latitude":-38.1667,
   "longitude":144.2667,
   "accuracy":4
 },
 {
   "postcode":3221,
   "place_name":"Staughton Vale",
   "state_name":"Victoria",
   "state_code":"VIC",
   "latitude":-37.85,
   "longitude":144.2833,
   "accuracy":4
 },
 {
   "postcode":3221,
   "place_name":"Wongarra",
   "state_name":"Victoria",
   "state_code":"VIC",
   "latitude":-38.7167,
   "longitude":143.75,
   "accuracy":4
 },
 {
   "postcode":3221,
   "place_name":"Moorabool",
   "state_name":"Victoria",
   "state_code":"VIC",
   "latitude":-38.0833,
   "longitude":144.3,
   "accuracy":4
 },
 {
   "postcode":3221,
   "place_name":"Anakie",
   "state_name":"Victoria",
   "state_code":"VIC",
   "latitude":-37.9167,
   "longitude":144.25,
   "accuracy":4
 },
 {
   "postcode":3221,
   "place_name":"Barrabool",
   "state_name":"Victoria",
   "state_code":"VIC",
   "latitude":-38.1667,
   "longitude":144.2263,
   "accuracy":4
 },
 {
   "postcode":3221,
   "place_name":"Kennett River",
   "state_name":"Victoria",
   "state_code":"VIC",
   "latitude":-38.6685,
   "longitude":143.8584,
   "accuracy":4
 },
 {
   "postcode":3221,
   "place_name":"Wye River",
   "state_name":"Victoria",
   "state_code":"VIC",
   "latitude":-38.6333,
   "longitude":143.8833,
   "accuracy":4
 },
 {
   "postcode":3221,
   "place_name":"Wallington",
   "state_name":"Victoria",
   "state_code":"VIC",
   "latitude":-38.2,
   "longitude":144.4833,
   "accuracy":4
 },
 {
   "postcode":3221,
   "place_name":"Lovely Banks",
   "state_name":"Victoria",
   "state_code":"VIC",
   "latitude":-38.0667,
   "longitude":144.3333,
   "accuracy":4
 },
 {
   "postcode":3222,
   "place_name":"Mannerim",
   "state_name":"Victoria",
   "state_code":"VIC",
   "latitude":-38.2167,
   "longitude":144.5833,
   "accuracy":4
 },
 {
   "postcode":3222,
   "place_name":"Drysdale",
   "state_name":"Victoria",
   "state_code":"VIC",
   "latitude":-38.1724,
   "longitude":144.5699,
   "accuracy":4
 },
 {
   "postcode":3222,
   "place_name":"Marcus Hill",
   "state_name":"Victoria",
   "state_code":"VIC",
   "latitude":-38.25,
   "longitude":144.5667,
   "accuracy":4
 },
 {
   "postcode":3222,
   "place_name":"Clifton Springs",
   "state_name":"Victoria",
   "state_code":"VIC",
   "latitude":-38.1567,
   "longitude":144.5551,
   "accuracy":4
 },
 {
   "postcode":3222,
   "place_name":"Curlewis",
   "state_name":"Victoria",
   "state_code":"VIC",
   "latitude":-38.1833,
   "longitude":144.4833,
   "accuracy":4
 },
 {
   "postcode":3222,
   "place_name":"Wallington",
   "state_name":"Victoria",
   "state_code":"VIC",
   "latitude":-38.2,
   "longitude":144.4833,
   "accuracy":4
 },
 {
   "postcode":3223,
   "place_name":"St Leonards",
   "state_name":"Victoria",
   "state_code":"VIC",
   "latitude":-38.1705,
   "longitude":144.718,
   "accuracy":4
 },
 {
   "postcode":3223,
   "place_name":"Indented Head",
   "state_name":"Victoria",
   "state_code":"VIC",
   "latitude":-38.1431,
   "longitude":144.7134,
   "accuracy":4
 },
 {
   "postcode":3223,
   "place_name":"Bellarine",
   "state_name":"Victoria",
   "state_code":"VIC",
   "latitude":-38.1333,
   "longitude":144.6167,
   "accuracy":4
 },
 {
   "postcode":3223,
   "place_name":"Portarlington",
   "state_name":"Victoria",
   "state_code":"VIC",
   "latitude":-38.1154,
   "longitude":144.6556,
   "accuracy":4
 },
 {
   "postcode":3224,
   "place_name":"Leopold",
   "state_name":"Victoria",
   "state_code":"VIC",
   "latitude":-38.19,
   "longitude":144.4682,
   "accuracy":4
 },
 {
   "postcode":3224,
   "place_name":"Moolap",
   "state_name":"Victoria",
   "state_code":"VIC",
   "latitude":-38.1833,
   "longitude":144.4333,
   "accuracy":4
 },
 {
   "postcode":3225,
   "place_name":"Point Lonsdale",
   "state_name":"Victoria",
   "state_code":"VIC",
   "latitude":-38.2817,
   "longitude":144.6105,
   "accuracy":4
 },
 {
   "postcode":3225,
   "place_name":"Queenscliff",
   "state_name":"Victoria",
   "state_code":"VIC",
   "latitude":-38.2679,
   "longitude":144.6619,
   "accuracy":4
 },
 {
   "postcode":3225,
   "place_name":"Swan Island",
   "state_name":"Victoria",
   "state_code":"VIC",
   "latitude":-35.4034,
   "longitude":143.6912,
   "accuracy":4
 },
 {
   "postcode":3225,
   "place_name":"Swan Bay",
   "state_name":"Victoria",
   "state_code":"VIC",
   "latitude":-38.2756,
   "longitude":144.631,
   "accuracy":3
 },
 {
   "postcode":3226,
   "place_name":"Ocean Grove",
   "state_name":"Victoria",
   "state_code":"VIC",
   "latitude":-38.2653,
   "longitude":144.5147,
   "accuracy":4
 },
 {
   "postcode":3227,
   "place_name":"Connewarre",
   "state_name":"Victoria",
   "state_code":"VIC",
   "latitude":-38.2667,
   "longitude":144.4,
   "accuracy":4
 },
 {
   "postcode":3227,
   "place_name":"Breamlea",
   "state_name":"Victoria",
   "state_code":"VIC",
   "latitude":-38.2597,
   "longitude":144.4509,
   "accuracy":3
 },
 {
   "postcode":3227,
   "place_name":"Barwon Heads",
   "state_name":"Victoria",
   "state_code":"VIC",
   "latitude":-38.2653,
   "longitude":144.5147,
   "accuracy":4
 },
 {
   "postcode":3228,
   "place_name":"Bellbrae",
   "state_name":"Victoria",
   "state_code":"VIC",
   "latitude":-38.3333,
   "longitude":144.2667,
   "accuracy":4
 },
 {
   "postcode":3228,
   "place_name":"Torquay",
   "state_name":"Victoria",
   "state_code":"VIC",
   "latitude":-38.3308,
   "longitude":144.3264,
   "accuracy":4
 },
 {
   "postcode":3228,
   "place_name":"Bells Beach",
   "state_name":"Victoria",
   "state_code":"VIC",
   "latitude":-38.3751,
   "longitude":144.2564,
   "accuracy":4
 },
 {
   "postcode":3228,
   "place_name":"Jan Juc",
   "state_name":"Victoria",
   "state_code":"VIC",
   "latitude":-38.3445,
   "longitude":144.2952,
   "accuracy":4
 },
 {
   "postcode":3230,
   "place_name":"Anglesea",
   "state_name":"Victoria",
   "state_code":"VIC",
   "latitude":-38.4073,
   "longitude":144.1859,
   "accuracy":4
 },
 {
   "postcode":3231,
   "place_name":"Aireys Inlet",
   "state_name":"Victoria",
   "state_code":"VIC",
   "latitude":-38.464,
   "longitude":144.1039,
   "accuracy":4
 },
 {
   "postcode":3231,
   "place_name":"Eastern View",
   "state_name":"Victoria",
   "state_code":"VIC",
   "latitude":-38.4595,
   "longitude":144.0909,
   "accuracy":3
 },
 {
   "postcode":3231,
   "place_name":"Fairhaven",
   "state_name":"Victoria",
   "state_code":"VIC",
   "latitude":-38.35,
   "longitude":145.2833,
   "accuracy":4
 },
 {
   "postcode":3231,
   "place_name":"Big Hill",
   "state_name":"Victoria",
   "state_code":"VIC",
   "latitude":-38.407,
   "longitude":144.6936,
   "accuracy":3
 },
 {
   "postcode":3231,
   "place_name":"Moggs Creek",
   "state_name":"Victoria",
   "state_code":"VIC",
   "latitude":-38.4595,
   "longitude":144.0909,
   "accuracy":3
 },
 {
   "postcode":3232,
   "place_name":"Lorne",
   "state_name":"Victoria",
   "state_code":"VIC",
   "latitude":-38.5404,
   "longitude":143.9764,
   "accuracy":4
 },
 {
   "postcode":3233,
   "place_name":"Apollo Bay",
   "state_name":"Victoria",
   "state_code":"VIC",
   "latitude":-38.7594,
   "longitude":143.6722,
   "accuracy":4
 },
 {
   "postcode":3233,
   "place_name":"Cape Otway",
   "state_name":"Victoria",
   "state_code":"VIC",
   "latitude":-38.85,
   "longitude":143.5167,
   "accuracy":4
 },